[{"business_id":"SQ2yRmUEev5rWQBjFWVssQ","categories":["Mexican","Restaurants"],"city":"Montréal","review_count":47,"name":"3 Amigos","neighborhoods":["Ville-Marie"],"longitude":-73.563,"state":"QC","stars":2.5,"latitude":45.515,"cat":"Mexican"},{"business_id":"ZCvIIuB5M-e7yXjjgVWQug","categories":["French","Restaurants"],"city":"Montréal","review_count":80,"name":"Le Quartier Général","neighborhoods":["Plateau-Mont-Royal"],"longitude":-73.5815,"state":"QC","stars":4.5,"latitude":45.5309,"cat":"French"},{"business_id":"xWUQak48XdNZ4ZlkaI4zng","categories":["Venezuelan","Latin American","Restaurants"],"city":"Montréal","review_count":148,"name":"Arepera du Plateau","neighborhoods":["Plateau-Mont-Royal"],"longitude":-73.5783,"state":"QC","stars":4.5,"latitude":45.5183,"cat":"American"},{"business_id":"9jQErGYcc6iWHhjg2zIU8Q","categories":["Restaurants","Italian"],"city":"Montréal","review_count":19,"name":"Trattoria Piatto Pieno","neighborhoods":["Rosemont-La Petite-Patrie"],"longitude":-73.6108,"state":"QC","stars":2.5,"latitude":45.5334,"cat":"Italian"},{"business_id":"8AS3dlN-Y3UG26elbF-jgg","categories":["Indian","Restaurants"],"city":"Montréal","review_count":4,"name":"Le Roi de L'Inde","neighborhoods":["Plateau-Mont-Royal"],"longitude":-73.5686,"state":"QC","stars":3,"latitude":45.5173,"cat":"Indian"},{"business_id":"hYBXS7CsQYFofLfTDT2ZLg","categories":["Restaurants","Italian"],"city":"Montréal","review_count":5,"name":"Wood35 Restaurant Bar","neighborhoods":["Plateau-Mont-Royal"],"longitude":-73.5708,"state":"QC","stars":3,"latitude":45.513,"cat":"Italian"},{"business_id":"Wn9K0O010E81YYsM1BTBCQ","categories":["Restaurants","Pizza","Italian"],"city":"Montréal","review_count":9,"name":"Pizzaiolle","neighborhoods":["Plateau-Mont-Royal"],"longitude":-73.5864,"state":"QC","stars":3.5,"latitude":45.5257,"cat":"Italian"},{"business_id":"Q4D5Zre41GBU8Nu0hq8vQw","categories":["French","Restaurants"],"city":"Montréal","review_count":5,"name":"Restaurant Le Tour De Ville","neighborhoods":["Ville-Marie"],"longitude":-73.5624,"state":"QC","stars":3.5,"latitude":45.4999,"cat":"French"},{"business_id":"Dy6NUM4NzEdfGLy7uDmXcQ","categories":["American (Traditional)","Restaurants"],"city":"Montréal","review_count":141,"name":"Montreal Poutine","neighborhoods":["Ville-Marie"],"longitude":-73.5528,"state":"QC","stars":3,"latitude":45.5072,"cat":"American"},{"business_id":"ORbDFcH_mvupg_uQ2LeZ2g","categories":["Indian","Restaurants"],"city":"Montréal","review_count":9,"name":"Restaurant India's Oven","neighborhoods":["Villeray-Saint-Michel-Parc-Extension"],"longitude":-73.6229,"state":"QC","stars":4,"latitude":45.5288,"cat":"Indian"}]
