[{"business_id":"ChjR4BA5sg_CeC84ks0x3Q","categories":["Pizza","Restaurants"],"city":"Montréal","review_count":4,"name":"Pizzeria Caldo","neighborhoods":["Rosemont-La Petite-Patrie"],"longitude":-73.5634,"state":"QC","stars":3.5,"latitude":45.5414},{"business_id":"dccIckfBjbbGUcKGCH884g","categories":["Chinese","Restaurants"],"city":"Montréal","review_count":4,"name":"Maison Guang Zhou","neighborhoods":["Ville-Marie"],"longitude":-73.5605,"state":"QC","stars":4,"latitude":45.507},{"business_id":"n29r7uz0OzpvA9ME-AytmA","categories":["Gastropubs","Mediterranean","Restaurants"],"city":"Montréal","review_count":19,"name":"Voro","neighborhoods":["Plateau-Mont-Royal"],"longitude":-73.5974,"state":"QC","stars":4,"latitude":45.5209},{"business_id":"jWN_2gdYwGbc4sAvtUUWIA","categories":["Chinese","Restaurants"],"city":"Montréal","review_count":19,"name":"Tong-Por","neighborhoods":["Ahunstic-Cartierville"],"longitude":-73.7213,"state":"QC","stars":3.5,"latitude":45.5279},{"business_id":"9QE0tadSpX08BoqWShSe9A","categories":["Asian Fusion","Restaurants"],"city":"Montréal","review_count":8,"name":"Tkrestobar","neighborhoods":["Côte-des-Neiges"],"longitude":-73.636,"state":"QC","stars":4.5,"latitude":45.4936},{"business_id":"ARBW_mW4nZ_yM5UB7slV1A","categories":["Vegetarian","Vegan","Restaurants"],"city":"Montréal","review_count":157,"name":"Lola Rosa","neighborhoods":["Plateau-Mont-Royal"],"longitude":-73.5757,"state":"QC","stars":4.5,"latitude":45.5074},{"business_id":"VPeVUB7yCWmDt0qE-srHBg","categories":["Bakeries","Food","Breakfast & Brunch","Restaurants"],"city":"Montréal","review_count":20,"name":"Pâtisserie la Ruche","neighborhoods":["Plateau-Mont-Royal"],"longitude":-73.5896,"state":"QC","stars":4,"latitude":45.5167},{"business_id":"H0MkhKq4X6p5Qm38n6B35A","categories":["Korean","Restaurants"],"city":"Montréal","review_count":4,"name":"Resto DaMoa","neighborhoods":["Notre-Dame-de-Grâce"],"longitude":-73.6354,"state":"QC","stars":3.5,"latitude":45.4602},{"business_id":"Z4BWyDbFrFFarnxPv3mnuA","categories":["Indian","Restaurants"],"city":"Montréal","review_count":62,"name":"Thanjai Restaurant","neighborhoods":["Côte-des-Neiges"],"longitude":-73.6374,"state":"QC","stars":4.5,"latitude":45.4949},{"business_id":"PjoSs8D4hpMkQKUbLm2jlg","categories":["Greek","Restaurants"],"city":"Montréal","review_count":17,"name":"Restaurant Nostos Souvlaki","neighborhoods":["Ahunstic-Cartierville"],"longitude":-73.6614,"state":"QC","stars":4,"latitude":45.5346},{"business_id":"9x2nOxYt8Dt1B7uH9rWdzA","categories":["Sushi Bars","Japanese","Restaurants"],"city":"Montréal","review_count":15,"name":"Kanda Sushi Bar","neighborhoods":["Côte-des-Neiges"],"longitude":-73.652,"state":"QC","stars":3,"latitude":45.4946},{"business_id":"ElTdljGpkETYZIYegTK9JA","categories":["Burgers","Diners","French","Restaurants"],"city":"Montréal","review_count":83,"name":"Frite Alors","neighborhoods":["Ville-Marie"],"longitude":-73.5644,"state":"QC","stars":4,"latitude":45.5154},{"business_id":"SQ2yRmUEev5rWQBjFWVssQ","categories":["Mexican","Restaurants"],"city":"Montréal","review_count":47,"name":"3 Amigos","neighborhoods":["Ville-Marie"],"longitude":-73.563,"state":"QC","stars":2.5,"latitude":45.515},{"business_id":"wN1uy6ebV5TTBytWS1589w","categories":["Chinese","Restaurants"],"city":"Montréal","review_count":48,"name":"Oh Dumplings!","neighborhoods":["Ville-Marie"],"longitude":-73.5604,"state":"QC","stars":3.5,"latitude":45.5077},{"business_id":"Fo4EsFdje95EjZSIhpUPPg","categories":["Belgian","French","Restaurants"],"city":"Montréal","review_count":7,"name":"Frite Alors","neighborhoods":["Plateau-Mont-Royal"],"longitude":-73.5824,"state":"QC","stars":4,"latitude":45.5347},{"business_id":"J31w7njKw9OuGdD9R2GXBg","categories":["French","Restaurants"],"city":"Montréal","review_count":12,"name":"Les Filles du Roy","neighborhoods":["Ville-Marie"],"longitude":-73.5526,"state":"QC","stars":4,"latitude":45.5109},{"business_id":"-movHgw5J8_X8l195k_whQ","categories":["Food","Coffee & Tea","Restaurants","Cafes","Italian"],"city":"Montréal","review_count":38,"name":"Caffè Italia","neighborhoods":["Rosemont-La Petite-Patrie"],"longitude":-73.6144,"state":"QC","stars":4,"latitude":45.5327},{"business_id":"WvZU5CF7jnBfsS5ah6sp1Q","categories":["Portuguese","Restaurants"],"city":"Montréal","review_count":13,"name":"Restaurant O Cantinho","neighborhoods":["Villeray-Saint-Michel-Parc-Extension"],"longitude":-73.6098,"state":"QC","stars":4,"latitude":45.5632},{"business_id":"oBidmLsdNDS6KvlAr7NDtQ","categories":["Shopping","Books, Mags, Music & Video","Cafes","Sandwiches","Vinyl Records","Restaurants"],"city":"Montréal","review_count":4,"name":"180g","neighborhoods":["Rosemont-La Petite-Patrie"],"longitude":-73.6118,"state":"QC","stars":5,"latitude":45.5291},{"business_id":"uyzyQ1rCl0YQ0_BUll5F7w","categories":["Seafood","Latin American","Restaurants"],"city":"Montréal","review_count":3,"name":"Madre","neighborhoods":["Ahunstic-Cartierville"],"longitude":-73.6659,"state":"QC","stars":4,"latitude":45.5467},{"business_id":"k1RFTNJcNMYTjW1viHZMdA","categories":["Portuguese","Restaurants"],"city":"Montréal","review_count":4,"name":"Monteiro","neighborhoods":["Rosemont-La Petite-Patrie"],"longitude":-73.615,"state":"QC","stars":3,"latitude":45.5377},{"business_id":"u3ONfQYP4CBStM4ZbBz8AA","categories":["Thai","Restaurants"],"city":"Montréal","review_count":3,"name":"Thai Express","neighborhoods":["Ville-Marie"],"longitude":-73.5643,"state":"QC","stars":3,"latitude":45.5008},{"business_id":"RULtOFDb3HBo7a5HAQ8sWQ","categories":["French","Restaurants"],"city":"Montréal","review_count":248,"name":"Modavie Resto-Bar","neighborhoods":["Ville-Marie"],"longitude":-73.5539,"state":"QC","stars":4,"latitude":45.5055},{"business_id":"K1yV_E_aOio4rH_uDFeu1w","categories":["Salad","Restaurants"],"city":"Montréal","review_count":39,"name":"Mandys Salad Bar","neighborhoods":["Ville-Marie"],"longitude":-73.5778,"state":"QC","stars":4,"latitude":45.4984},{"business_id":"y0nP7sQUufEDMV0lARp8Iw","categories":["Korean","Asian Fusion","Restaurants"],"city":"Montréal","review_count":28,"name":"Haru Hana","neighborhoods":["Ville-Marie"],"longitude":-73.5592,"state":"QC","stars":4.5,"latitude":45.5172},{"business_id":"PdxUFKxdRz0c1yjg222Pxg","categories":["Pizza","Restaurants"],"city":"Montréal","review_count":15,"name":"Pizza St. Viateur","neighborhoods":["Plateau-Mont-Royal"],"longitude":-73.5991,"state":"QC","stars":3.5,"latitude":45.5257},{"business_id":"iIxGqrjsWxOm5x6SG33l1w","categories":["Tapas/Small Plates","Restaurants"],"city":"Montréal","review_count":58,"name":"Marché 27","neighborhoods":["Plateau-Mont-Royal"],"longitude":-73.5731,"state":"QC","stars":4,"latitude":45.5135},{"business_id":"9f19IPvL2n9my8IKJ64SNQ","categories":["Mexican","Restaurants"],"city":"Montréal","review_count":12,"name":"Restaurant El Sabor de México","neighborhoods":["Verdun"],"longitude":-73.5678,"state":"QC","stars":4,"latitude":45.456},{"business_id":"UOhu2Z50eDHn77RFpBS3Dw","categories":["Food","Coffee & Tea","Sandwiches","Restaurants"],"city":"Montréal","review_count":7,"name":"Café Névé","neighborhoods":["Ville-Marie"],"longitude":-73.5744,"state":"QC","stars":3.5,"latitude":45.4994},{"business_id":"7lal9aFhyfm5n3GX8XZ7SQ","categories":["French","Restaurants"],"city":"Montréal","review_count":11,"name":"Restaurant Carte Blanche","neighborhoods":["Ville-Marie"],"longitude":-73.5627,"state":"QC","stars":3.5,"latitude":45.5209},{"business_id":"bjv2rKlIjyN5SI6nELN14Q","categories":["Restaurants","Italian"],"city":"Montréal","review_count":11,"name":"Via Roma","neighborhoods":["Rosemont-La Petite-Patrie"],"longitude":-73.6165,"state":"QC","stars":3.5,"latitude":45.5337},{"business_id":"a2rRLkrhKYOhsxkUsaNxuw","categories":["Lebanese","Middle Eastern","Restaurants"],"city":"Montréal","review_count":12,"name":"Boustan","neighborhoods":["Ville-Marie"],"longitude":-73.5636,"state":"QC","stars":3,"latitude":45.5103},{"business_id":"AF85H0ikaqHYPwnv3FN3Gg","categories":["Italian","Pizza","Restaurants"],"city":"Montréal","review_count":50,"name":"Amelios","neighborhoods":["Plateau-Mont-Royal"],"longitude":-73.5727,"state":"QC","stars":4,"latitude":45.5107},{"business_id":"dvJ2ZVDCxj_HWCUeE8LPxQ","categories":["Breakfast & Brunch","Restaurants"],"city":"Montréal","review_count":35,"name":"Restaurant L'Évidence","neighborhoods":["Plateau-Mont-Royal"],"longitude":-73.5696,"state":"QC","stars":3.5,"latitude":45.5181},{"business_id":"Zk0u8UMRjPTQC0KMS1Kaqg","categories":["Cafes","Restaurants"],"city":"Montréal","review_count":5,"name":"A'propos Café","neighborhoods":["Ville-Marie"],"longitude":-73.553,"state":"QC","stars":4,"latitude":45.5092},{"business_id":"wyfJuEY5Mh2-xlUlZh5iMA","categories":["Steakhouses","Barbeque","Restaurants"],"city":"Montréal","review_count":14,"name":"Grill'n Go","neighborhoods":["Ahunstic-Cartierville"],"longitude":-73.654,"state":"QC","stars":4,"latitude":45.5676},{"business_id":"X5-GW22MhphI0P0wr1mBPQ","categories":["Vietnamese","Restaurants"],"city":"Montréal","review_count":38,"name":"Pho Saigon VIP","neighborhoods":["Ville-Marie"],"longitude":-73.58,"state":"QC","stars":3,"latitude":45.493},{"business_id":"yExLD0e8edHuY4CDzV_Jfw","categories":["French","Restaurants"],"city":"Montréal","review_count":5,"name":"Bistro Etc","neighborhoods":["Plateau-Mont-Royal"],"longitude":-73.5776,"state":"QC","stars":2.5,"latitude":45.5298},{"business_id":"Qstn_8U1ifSl-HU-ksJrYQ","categories":["Italian","Pizza","Restaurants"],"city":"Montréal","review_count":5,"name":"Pizzeria Martina","neighborhoods":["Ville-Marie"],"longitude":-73.5813,"state":"QC","stars":4,"latitude":45.4829},{"business_id":"dXezFE77X4sQyqGBMbeECg","categories":["Greek","Mediterranean","Restaurants"],"city":"Montréal","review_count":11,"name":"Casa Grecque","neighborhoods":["Plateau-Mont-Royal"],"longitude":-73.5707,"state":"QC","stars":3,"latitude":45.5158},{"business_id":"GmnT0B8XS_cxmarbgfZ-AA","categories":["Chicken Wings","Restaurants"],"city":"Montréal","review_count":5,"name":"Buffalo Bill Wings","neighborhoods":["Rosemont-La Petite-Patrie"],"longitude":-73.6206,"state":"QC","stars":3,"latitude":45.5321},{"business_id":"hg2q5fJNH1c-CYZWT1Sc4g","categories":["Italian","Pizza","Restaurants"],"city":"Montreal","review_count":182,"name":"Pizza Il Focolaio","neighborhoods":["Ville-Marie"],"longitude":-73.5682,"state":"QC","stars":4,"latitude":45.504},{"business_id":"2uOY0RrqcI1fp9cE79lu3g","categories":["Breakfast & Brunch","Cafes","French","Restaurants"],"city":"Montréal","review_count":13,"name":"Cafe Joe","neighborhoods":["Ville-Marie"],"longitude":-73.5813,"state":"QC","stars":3.5,"latitude":45.4848},{"business_id":"yfsdtgvRBCp3cc9CN7XMPQ","categories":["Bakeries","Food","Korean","Restaurants"],"city":"Montréal","review_count":30,"name":"Le Painnamou","neighborhoods":["Ville-Marie"],"longitude":-73.5783,"state":"QC","stars":4.5,"latitude":45.4975},{"business_id":"8mclQcbFEeabq4lSolItQQ","categories":["Breakfast & Brunch","Gluten-Free","Vegan","Restaurants"],"city":"Montréal","review_count":6,"name":"Copper Branch","neighborhoods":["Plateau-Mont-Royal"],"longitude":-73.578,"state":"QC","stars":3,"latitude":45.5295},{"business_id":"7x2bCqZneFU6usc4t1R-nw","categories":["Fast Food","Vietnamese","Restaurants"],"city":"Montréal","review_count":3,"name":"Pho 99 Chabanel","neighborhoods":["Ahunstic-Cartierville"],"longitude":-73.6517,"state":"QC","stars":5,"latitude":45.5448},{"business_id":"5HnXsYY8i1P6H1QT6xf45A","categories":["Indian","Restaurants"],"city":"Montréal","review_count":22,"name":"Curry Mahal","neighborhoods":["Plateau-Mont-Royal"],"longitude":-73.5765,"state":"QC","stars":4.5,"latitude":45.5156},{"business_id":"ssoMQ-qX07Rr8Eozhm-nzA","categories":["Pizza","Restaurants"],"city":"Montréal","review_count":9,"name":"Atlas Pizza","neighborhoods":["Notre-Dame-de-Grâce"],"longitude":-73.6391,"state":"QC","stars":2.5,"latitude":45.4672},{"business_id":"IhDTUAFc2x8U8brTeBAeUQ","categories":["Persian/Iranian","Middle Eastern","Restaurants"],"city":"Montréal","review_count":23,"name":"La Maison De Kebab","neighborhoods":["Ville-Marie"],"longitude":-73.5806,"state":"QC","stars":4,"latitude":45.4851},{"business_id":"udqu4L9pHPlVT_r-jJbvRQ","categories":["Italian","Pizza","Restaurants"],"city":"Montréal","review_count":12,"name":"La Piazzetta","neighborhoods":["Plateau-Mont-Royal"],"longitude":-73.5765,"state":"QC","stars":3.5,"latitude":45.5213},{"business_id":"8QPanp-piD4nN5gc3u9t3Q","categories":["Cafes","Restaurants"],"city":"Montréal","review_count":8,"name":"Padoca Pâtisserie Brésilienne","neighborhoods":["Ville-Marie"],"longitude":-73.5579,"state":"QC","stars":5,"latitude":45.5178},{"business_id":"s9dY_Q7y19BlxYAAetVQRg","categories":["Pizza","Chinese","Canadian (New)","Restaurants"],"city":"Montréal","review_count":3,"name":"Palais Montcalm","neighborhoods":["Ville-Marie"],"longitude":-73.5612,"state":"QC","stars":3.5,"latitude":45.5223},{"business_id":"1eLPQ67ayM5JoV7O7mn0kQ","categories":["Mexican","Restaurants"],"city":"Montréal","review_count":27,"name":"Restaurant Amaranto","neighborhoods":["Notre-Dame-de-Grâce"],"longitude":-73.6264,"state":"QC","stars":4.5,"latitude":45.4714},{"business_id":"Ava5e1hLjDI-lHA_Q8KwSg","categories":["Sushi Bars","Restaurants"],"city":"Montréal","review_count":10,"name":"Akiko Sushi","neighborhoods":["Côte-des-Neiges"],"longitude":-73.6275,"state":"QC","stars":4,"latitude":45.499},{"business_id":"nEhNtKe3p5QeKOgyfQCNrQ","categories":["Japanese","Sushi Bars","Asian Fusion","Restaurants"],"city":"Montréal","review_count":6,"name":"Kaiji Sushi","neighborhoods":["Villeray-Saint-Michel-Parc-Extension"],"longitude":-73.605,"state":"QC","stars":4.5,"latitude":45.5506},{"business_id":"5YTFjVkMDe7C-l1VOHYugg","categories":["Korean","Restaurants"],"city":"Montréal","review_count":3,"name":"Resto Danji","neighborhoods":["Ville-Marie"],"longitude":-73.5749,"state":"QC","stars":3.5,"latitude":45.4957},{"business_id":"kiFrvSe9TzlYWJgprQTpEg","categories":["Buffets","Indian","Middle Eastern","Restaurants"],"city":"Montréal","review_count":60,"name":"Buffet Maharaja","neighborhoods":["Ville-Marie"],"longitude":-73.5748,"state":"QC","stars":2,"latitude":45.4945},{"business_id":"UGDonYAbwtkzZt6VG0LWhA","categories":["Greek","Restaurants"],"city":"Montréal","review_count":7,"name":"Restaurant Nikas","neighborhoods":["Notre-Dame-de-Grâce"],"longitude":-73.6214,"state":"QC","stars":4,"latitude":45.4679},{"business_id":"Rv4qCLFJpkgrnVE1uxnnXA","categories":["Bars","French","Pubs","Nightlife","Canadian (New)","Restaurants"],"city":"Montréal","review_count":18,"name":"Balconville","neighborhoods":["Verdun"],"longitude":-73.5675,"state":"QC","stars":4,"latitude":45.4571},{"business_id":"wNAjDzXEYmPyhzwpGvTY_w","categories":["Cafes","Restaurants"],"city":"Montréal","review_count":20,"name":"Moustache Café","neighborhoods":["Rosemont-La Petite-Patrie"],"longitude":-73.6081,"state":"QC","stars":4.5,"latitude":45.5307},{"business_id":"ZttVe0O1uPG_OJl9hfk8ow","categories":["Barbeque","Restaurants"],"city":"Montréal","review_count":26,"name":"Moonshine BBQ","neighborhoods":["Côte-des-Neiges"],"longitude":-73.6372,"state":"QC","stars":3.5,"latitude":45.4871},{"business_id":"qvyNSlcajDhrZO1GfSZbgw","categories":["French","Restaurants"],"city":"Montréal","review_count":7,"name":"Restaurant Le Coin G","neighborhoods":["Villeray-Saint-Michel-Parc-Extension"],"longitude":-73.6339,"state":"QC","stars":3.5,"latitude":45.5405},{"business_id":"JGmh01QWBJ6aOHB_TAMp1Q","categories":["Greek","Restaurants"],"city":"Montréal","review_count":13,"name":"Phyllo Bar Melina's","neighborhoods":["Plateau-Mont-Royal"],"longitude":-73.6052,"state":"QC","stars":4.5,"latitude":45.5236},{"business_id":"_3LstDj-mpWitB1voS1G9w","categories":["Breakfast & Brunch","Restaurants"],"city":"Montréal","review_count":3,"name":"Chez Bédine","neighborhoods":["Sud-Ouest"],"longitude":-73.5836,"state":"QC","stars":5,"latitude":45.4635},{"business_id":"uRa1lZGB5uxbB8B11VxFag","categories":["Cafes","Restaurants"],"city":"Montréal","review_count":14,"name":"Anticafé","neighborhoods":["Ville-Marie"],"longitude":-73.5664,"state":"QC","stars":4,"latitude":45.5067},{"business_id":"SH5CRaWsgDh47QicsBr_8A","categories":["Burgers","Fast Food","Restaurants"],"city":"Montréal","review_count":42,"name":"Uniburger","neighborhoods":["Ville-Marie"],"longitude":-73.5658,"state":"QC","stars":4,"latitude":45.5146},{"business_id":"qNtBRO3YRkuL2fnCq-TBgQ","categories":["Vietnamese","Restaurants"],"city":"Montréal","review_count":3,"name":"Le Fou D'épices","neighborhoods":["Plateau-Mont-Royal"],"longitude":-73.5837,"state":"QC","stars":2,"latitude":45.523},{"business_id":"3pgTR-ufeFOyQSRf-03F0w","categories":["Sushi Bars","Restaurants"],"city":"Montréal","review_count":11,"name":"Zushi Sushi","neighborhoods":["Ville-Marie"],"longitude":-73.5796,"state":"QC","stars":3,"latitude":45.4938},{"business_id":"bqzTmZ_Hr2s5erUwfVUA1g","categories":["Vietnamese","Restaurants"],"city":"Montréal","review_count":22,"name":"Hoai Huong","neighborhoods":["Côte-des-Neiges"],"longitude":-73.6311,"state":"QC","stars":4,"latitude":45.4914},{"business_id":"wMIYEM_1zMUuLlnT9fvc-A","categories":["Pizza","Restaurants"],"city":"Montréal","review_count":7,"name":"Moleskine","neighborhoods":["Plateau-Mont-Royal"],"longitude":-73.5716,"state":"QC","stars":4,"latitude":45.5084},{"business_id":"xZtwhzBL7SIgx3mcfz9WUw","categories":["Korean","Chicken Wings","Restaurants"],"city":"Montréal","review_count":24,"name":"The Basak","neighborhoods":["Ville-Marie"],"longitude":-73.5762,"state":"QC","stars":3.5,"latitude":45.494},{"business_id":"U88FKzAccPp6cGMfWZmbuQ","categories":["Restaurants"],"city":"Montréal","review_count":20,"name":"Star of India Restaurant","neighborhoods":["Ville-Marie"],"longitude":-73.5794,"state":"QC","stars":3,"latitude":45.4937},{"business_id":"zU3OTm5jQnPmIYIGOhPmvg","categories":["Pizza","Restaurants"],"city":"Montréal","review_count":3,"name":"Double Pizza","neighborhoods":["Rosemont-La Petite-Patrie","Villeray-Saint-Michel-Parc-Extension"],"longitude":-73.6122,"state":"QC","stars":1,"latitude":45.5418},{"business_id":"9eLBUR4i5mnV5A87pVATIw","categories":["Restaurants","Italian"],"city":"Montréal","review_count":13,"name":"Bellagio Ristorante","neighborhoods":["Ville-Marie"],"longitude":-73.5708,"state":"QC","stars":4,"latitude":45.5056},{"business_id":"AjJ-k45N8ktuKhZmugHtzA","categories":["Fast Food","Chicken Wings","Restaurants"],"city":"Montréal","review_count":4,"name":"PFK","neighborhoods":["Saint-Laurent"],"longitude":-73.6848,"state":"QC","stars":1.5,"latitude":45.5131},{"business_id":"6wijrP2gwfRCN5EWaZ9Qfg","categories":["Burgers","Sandwiches","Salad","Restaurants"],"city":"Montréal","review_count":38,"name":"Place Milton","neighborhoods":["Plateau-Mont-Royal"],"longitude":-73.5727,"state":"QC","stars":3.5,"latitude":45.5104},{"business_id":"pEP9i5uIcZQzPOGKOxBjuw","categories":["Restaurants"],"city":"Montréal","review_count":8,"name":"Tsak-Tsak","neighborhoods":["Rosemont-La Petite-Patrie"],"longitude":-73.606,"state":"QC","stars":3.5,"latitude":45.5327},{"business_id":"ScxhX5He2vVmomGNRooOAA","categories":["Thai","Restaurants"],"city":"Montréal","review_count":9,"name":"Restaurant Phayathai","neighborhoods":["Plateau-Mont-Royal"],"longitude":-73.5943,"state":"QC","stars":2.5,"latitude":45.5218},{"business_id":"34U7oQ-BIPVrutpbXKxBOg","categories":["Peruvian","Restaurants"],"city":"Montréal","review_count":9,"name":"Puca Puca","neighborhoods":["Plateau-Mont-Royal"],"longitude":-73.5977,"state":"QC","stars":4,"latitude":45.525},{"business_id":"x_wGI7BzF88vCm791evO6w","categories":["Mexican","Restaurants"],"city":"Montréal","review_count":11,"name":"Restaurant El Amigo","neighborhoods":["Rosemont-La Petite-Patrie"],"longitude":-73.6113,"state":"QC","stars":4.5,"latitude":45.5325},{"business_id":"1LssNZj0_KKTLwduP0ZFEg","categories":["French","Restaurants"],"city":"Montréal","review_count":22,"name":"Bistro Florin","neighborhoods":["Ville-Marie"],"longitude":-73.5578,"state":"QC","stars":4,"latitude":45.5177},{"business_id":"sfygFhbGhevWNeXW5odVfA","categories":["Japanese","Restaurants"],"city":"Montréal","review_count":14,"name":"Boîte Geisha","neighborhoods":["Plateau-Mont-Royal"],"longitude":-73.5785,"state":"QC","stars":4.5,"latitude":45.529},{"business_id":"UMsBtld97NbhupwJ8-SxfA","categories":["Burgers","Belgian","Sandwiches","Restaurants"],"city":"Montréal","review_count":64,"name":"Frite Alors","neighborhoods":["Ville-Marie"],"longitude":-73.5698,"state":"QC","stars":3,"latitude":45.5028},{"business_id":"dIcc2Z7m-JcHHLxwCuyfug","categories":["Restaurants","Sushi Bars","Italian"],"city":"Montréal","review_count":11,"name":"Restaurant Prima Luna","neighborhoods":["Anjou"],"longitude":-73.5942,"state":"QC","stars":4,"latitude":45.6172},{"business_id":"66A3PLnkghVvpquTsNrc1Q","categories":["Spanish","Basque","Restaurants"],"city":"Montréal","review_count":7,"name":"Pintxo","neighborhoods":["Plateau-Mont-Royal"],"longitude":-73.5834,"state":"QC","stars":4,"latitude":45.5233},{"business_id":"O_b_4E3V2W4P3pXQO9NVEA","categories":["Breakfast & Brunch","Restaurants"],"city":"Montréal","review_count":5,"name":"Ma Tante Quiche","neighborhoods":["Sud-Ouest"],"longitude":-73.5656,"state":"QC","stars":4.5,"latitude":45.4807},{"business_id":"oKFY6XJzpgnU6-9hAADqtw","categories":["Breakfast & Brunch","Diners","Restaurants"],"city":"Montréal","review_count":53,"name":"Nouveau Palais","neighborhoods":["Plateau-Mont-Royal"],"longitude":-73.6055,"state":"QC","stars":4,"latitude":45.5239},{"business_id":"J4Rh_Pi_knpkKOBjFHJBCA","categories":["French","Restaurants"],"city":"Montréal","review_count":12,"name":"Restaurant Julien","neighborhoods":["Ville-Marie"],"longitude":-73.5675,"state":"QC","stars":3.5,"latitude":45.5031},{"business_id":"woP8FSc9HlOm26DgZMtvpA","categories":["Restaurants"],"city":"Montréal","review_count":10,"name":"Restaurant Mr Ma","neighborhoods":["Ville-Marie"],"longitude":-73.5678,"state":"QC","stars":4,"latitude":45.5018},{"business_id":"z0e5J5RPShCrTwGYKTQlBA","categories":["Cafes","Restaurants"],"city":"Montréal","review_count":24,"name":"Cafe Larue Et Fils","neighborhoods":["Villeray-Saint-Michel-Parc-Extension"],"longitude":-73.6181,"state":"QC","stars":3.5,"latitude":45.5378},{"business_id":"snzYnnsfSYe5bN0SgbF1bA","categories":["Fast Food","Restaurants"],"city":"Montréal","review_count":5,"name":"PFK","neighborhoods":["Notre-Dame-de-Grâce"],"longitude":-73.6083,"state":"QC","stars":4,"latitude":45.4743},{"business_id":"VaIofXGibAa2ibEomErtVA","categories":["Seafood","Bars","Nightlife","Restaurants"],"city":"Montréal","review_count":97,"name":"Notkins","neighborhoods":["Ville-Marie"],"longitude":-73.5636,"state":"QC","stars":4.5,"latitude":45.5047},{"business_id":"xWUQak48XdNZ4ZlkaI4zng","categories":["Venezuelan","Latin American","Restaurants"],"city":"Montréal","review_count":148,"name":"Arepera du Plateau","neighborhoods":["Plateau-Mont-Royal"],"longitude":-73.5783,"state":"QC","stars":4.5,"latitude":45.5183},{"business_id":"STnVH08sXTnYLQnFDpemVA","categories":["Sandwiches","French","Restaurants"],"city":"Montréal","review_count":31,"name":"Terrasse Nelligan","neighborhoods":["Ville-Marie"],"longitude":-73.5545,"state":"QC","stars":3.5,"latitude":45.5041},{"business_id":"2yXIl7y0fvIh8Tjob6NF_A","categories":["Coffee & Tea","Shopping","Food","Sporting Goods","Cafes","Bikes","Hotels & Travel","Travel Services","Restaurants"],"city":"Montréal","review_count":14,"name":"La maison des cyclistes","neighborhoods":["Plateau-Mont-Royal"],"longitude":-73.573,"state":"QC","stars":4,"latitude":45.5272},{"business_id":"VZLTYr_v1vLSFKBw1aqhaA","categories":["Burgers","Restaurants"],"city":"Montréal","review_count":53,"name":"Hachoir","neighborhoods":["Plateau-Mont-Royal"],"longitude":-73.578,"state":"QC","stars":4,"latitude":45.5219},{"business_id":"KTJhro6dov4GtwoJykiWOA","categories":["Poutineries","Restaurants"],"city":"Montréal","review_count":23,"name":"Smoke's Poutinerie","neighborhoods":["Ville-Marie"],"longitude":-73.5783,"state":"QC","stars":3,"latitude":45.4976},{"business_id":"VFEKH4ow8wsLIWZIZKb-2A","categories":["Japanese","Restaurants"],"city":"Montréal","review_count":21,"name":"Saka-Ba","neighborhoods":["Plateau-Mont-Royal"],"longitude":-73.5778,"state":"QC","stars":3,"latitude":45.5297},{"business_id":"NtM5HKXI8MzV8QDn0HLeSw","categories":["Japanese","Restaurants"],"city":"Montréal","review_count":11,"name":"Hyang Jin Japanese Restaurant","neighborhoods":["Côte-des-Neiges"],"longitude":-73.6295,"state":"QC","stars":4,"latitude":45.4829},{"business_id":"Hcs11B8ExSVIXRldbiZ2Mw","categories":["Food","Comfort Food","Food Trucks","Restaurants"],"city":"Montréal","review_count":14,"name":"P.A. & Gargantua","neighborhoods":["Ville-Marie"],"longitude":-73.554,"state":"QC","stars":4,"latitude":45.5087},{"business_id":"UY0bwSVLcBcMTCYbUycdMw","categories":["Sushi Bars","Restaurants"],"city":"Montréal","review_count":19,"name":"5 Saisons Sushi","neighborhoods":["Notre-Dame-de-Grâce"],"longitude":-73.6131,"state":"QC","stars":4,"latitude":45.4716},{"business_id":"hdOREU_bsb8LmfQrTjaxYw","categories":["Cafes","Restaurants"],"city":"Montréal","review_count":12,"name":"La Bistrote","neighborhoods":["Sud-Ouest"],"longitude":-73.5665,"state":"QC","stars":4,"latitude":45.4902},{"business_id":"T903SkJTdLjDrSwEKH1rgA","categories":["French","Restaurants"],"city":"Montréal","review_count":8,"name":"Restaurant A L'aventure","neighborhoods":["Ville-Marie"],"longitude":-73.5534,"state":"QC","stars":3.5,"latitude":45.5077},{"business_id":"9ZBKg9nXQilRJLIp7eJO8A","categories":["Pizza","Restaurants"],"city":"Montréal","review_count":7,"name":"Hollywood Pizzeria","neighborhoods":["Rivière-des-Prairies–Pointe-aux-Trembles"],"longitude":-73.5864,"state":"QC","stars":4,"latitude":45.6294},{"business_id":"3I0UgFNyyk39bDcHaC5KzA","categories":["Japanese","Restaurants"],"city":"Montréal","review_count":49,"name":"Jatoba","neighborhoods":["Ville-Marie"],"longitude":-73.5677,"state":"QC","stars":4,"latitude":45.5036},{"business_id":"cJm23JucsNcQtyqzMh2h5A","categories":["Japanese","Restaurants"],"city":"Montréal","review_count":3,"name":"Kasa Sushi","neighborhoods":["Plateau-Mont-Royal"],"longitude":-73.5712,"state":"QC","stars":4,"latitude":45.5363},{"business_id":"b6R-vvN8keWs99vbCVrKsw","categories":["Fondue","Japanese","Restaurants"],"city":"Montréal","review_count":30,"name":"Shabu Shabu Kagayaki","neighborhoods":["Ville-Marie"],"longitude":-73.5608,"state":"QC","stars":4,"latitude":45.5072},{"business_id":"6CvV6e57dnliroUmefpOLw","categories":["Canadian (New)","French","Restaurants"],"city":"Montréal","review_count":140,"name":"Le Club Chasse et Pêche","neighborhoods":["Ville-Marie"],"longitude":-73.5525,"state":"QC","stars":4.5,"latitude":45.5089},{"business_id":"86Qo7IgC7o2eosvXnTx2HA","categories":["Kosher","Delis","Sandwiches","Restaurants"],"city":"Montréal","review_count":4,"name":"Deli 365","neighborhoods":["Plateau-Mont-Royal"],"longitude":-73.6059,"state":"QC","stars":4,"latitude":45.5234},{"business_id":"yQGcRRt_afHuwt86m7V7bA","categories":["Thai","Restaurants"],"city":"Montréal","review_count":16,"name":"Bangkok Express","neighborhoods":["Notre-Dame-de-Grâce"],"longitude":-73.6233,"state":"QC","stars":2.5,"latitude":45.4753},{"business_id":"x6VwVUJk26JUVN9hgGDeNg","categories":["Food","Breakfast & Brunch","Coffee & Tea","Restaurants"],"city":"Montréal","review_count":45,"name":"La Petite Marche","neighborhoods":["Plateau-Mont-Royal"],"longitude":-73.5888,"state":"QC","stars":3.5,"latitude":45.5268},{"business_id":"flbOzx2qP3M3F_AMRO8s5w","categories":["Pubs","Bars","Nightlife","Irish","Restaurants"],"city":"Montréal","review_count":80,"name":"McKibbin's Irish Pub","neighborhoods":["Ville-Marie"],"longitude":-73.5774,"state":"QC","stars":3.5,"latitude":45.4968},{"business_id":"kE1aSOUf7DyyURhEDsTS5A","categories":["Lebanese","Middle Eastern","Restaurants"],"city":"Montréal","review_count":9,"name":"Basha - Drummond","neighborhoods":["Ville-Marie"],"longitude":-73.5741,"state":"QC","stars":2,"latitude":45.4987},{"business_id":"6bCXom6ZlRxuyMZKUYyUtQ","categories":["Italian","French","Restaurants"],"city":"Montréal","review_count":3,"name":"Apollo","neighborhoods":["Rosemont-La Petite-Patrie"],"longitude":-73.6078,"state":"QC","stars":4.5,"latitude":45.5301},{"business_id":"nWgkRNJhR81Llvw7J67_pA","categories":["Brasseries","Canadian (New)","Restaurants"],"city":"Montreal","review_count":10,"name":"Les Enfants Terribles","neighborhoods":["Ville-Marie"],"longitude":-73.5693,"state":"QC","stars":3,"latitude":45.5021},{"business_id":"6lGp9rZkSXdz5Pqsv5F3PQ","categories":["Cafes","Restaurants"],"city":"Montréal","review_count":11,"name":"Café Grévin par Europea","neighborhoods":["Ville-Marie"],"longitude":-73.571,"state":"QC","stars":4,"latitude":45.5025},{"business_id":"qTlEWzrv5ONv6wbDp9K4Sg","categories":["Thai","Restaurants"],"city":"Montréal","review_count":3,"name":"Thai Express","neighborhoods":["Ville-Marie"],"longitude":-73.5724,"state":"QC","stars":2.5,"latitude":45.5013},{"business_id":"-qXv7WoDJ1AIO_JVKAHJ7g","categories":["African","Moroccan","Restaurants"],"city":"Montréal","review_count":6,"name":"L'Olive Noire","neighborhoods":["Mercier-Hochelaga-Maisonneuve"],"longitude":-73.5402,"state":"QC","stars":3.5,"latitude":45.5522},{"business_id":"q1GMRWGMQd7Ut1D0NFZlMA","categories":["Bars","Nightlife","Restaurants"],"city":"Montréal","review_count":17,"name":"Madisons N Y Bar & Grill","neighborhoods":["Mercier-Hochelaga-Maisonneuve"],"longitude":-73.552,"state":"QC","stars":2.5,"latitude":45.5679},{"business_id":"VBnt7K9S9jldKgeYXCV-IQ","categories":["Thai","Vietnamese","Restaurants"],"city":"Montréal","review_count":12,"name":"Thai & Pho","neighborhoods":["Ville-Marie"],"longitude":-73.5795,"state":"QC","stars":2.5,"latitude":45.4938},{"business_id":"k8Lwi5ovd9Z-7W_OKRs-ag","categories":["Restaurants"],"city":"Montréal","review_count":3,"name":"Restaurant Azar","neighborhoods":["Notre-Dame-de-Grâce"],"longitude":-73.6192,"state":"QC","stars":4.5,"latitude":45.469},{"business_id":"vdOhxFYPHbCg93iZoTkfnA","categories":["Latin American","Salvadoran","Restaurants"],"city":"Montréal","review_count":15,"name":"Los Planes","neighborhoods":["Plateau-Mont-Royal"],"longitude":-73.577,"state":"QC","stars":4,"latitude":45.5213},{"business_id":"o812toMX-x1eJcW1n21xaQ","categories":["Thai","Restaurants"],"city":"Montréal","review_count":5,"name":"Restaurant Thailandais Bato Thai","neighborhoods":["Ville-Marie"],"longitude":-73.5552,"state":"QC","stars":4,"latitude":45.5194},{"business_id":"zuzdoR9tnUMmpb4LaaK2Hg","categories":["Japanese","Restaurants"],"city":"Montréal","review_count":9,"name":"Otto Yakitori Izakaya","neighborhoods":["Ville-Marie"],"longitude":-73.5798,"state":"QC","stars":4,"latitude":45.4945},{"business_id":"B3N7lRwPZ1KxyloBEam9tQ","categories":["Vietnamese","Japanese","Restaurants"],"city":"Montréal","review_count":3,"name":"Zenbu Sushi","neighborhoods":["Ahunstic-Cartierville"],"longitude":-73.7193,"state":"QC","stars":4.5,"latitude":45.5324},{"business_id":"jO8IWN5imZJ5Nq5qPLqgFQ","categories":["Thai","Vietnamese","Chinese","Restaurants"],"city":"Montréal","review_count":13,"name":"Kim Hour","neighborhoods":["Villeray-Saint-Michel-Parc-Extension"],"longitude":-73.6052,"state":"QC","stars":3.5,"latitude":45.5617},{"business_id":"KgF8wUIerbKY56annXNKSQ","categories":["Middle Eastern","Restaurants"],"city":"Montréal","review_count":4,"name":"Restaurant Amir","neighborhoods":["Plateau-Mont-Royal"],"longitude":-73.5826,"state":"QC","stars":2.5,"latitude":45.524},{"business_id":"F6bTH4qztK9HBDp3kNzsWw","categories":["Breakfast & Brunch","Cafes","Restaurants"],"city":"Montréal","review_count":27,"name":"Ma Douce Moitié","neighborhoods":["Verdun"],"longitude":-73.5674,"state":"QC","stars":4,"latitude":45.4586},{"business_id":"5Kp6LQt0pg8f3jVFCQ3NWA","categories":["Canadian (New)","Restaurants"],"city":"Montréal","review_count":34,"name":"Pitarifique","neighborhoods":["Plateau-Mont-Royal"],"longitude":-73.5817,"state":"QC","stars":4,"latitude":45.5178},{"business_id":"fvBau9SuuqR6nNq82HiVwQ","categories":["French","Restaurants"],"city":"Montréal","review_count":4,"name":"Bar Laitier Le Patio Enr","neighborhoods":["Plateau-Mont-Royal"],"longitude":-73.5807,"state":"QC","stars":4.5,"latitude":45.526},{"business_id":"QIUrEVjI6aCtAeM6SW-uiA","categories":["Ramen","Japanese","Restaurants"],"city":"Montréal","review_count":62,"name":"Ramen-Ya","neighborhoods":["Plateau-Mont-Royal"],"longitude":-73.5833,"state":"QC","stars":3.5,"latitude":45.5185},{"business_id":"Mzav4lzj2TaQfPubZD-l1w","categories":["Food","Coffee & Tea","Sandwiches","Restaurants"],"city":"Montréal","review_count":5,"name":"Cafe Java U","neighborhoods":["Ville-Marie"],"longitude":-73.5604,"state":"QC","stars":2.5,"latitude":45.503},{"business_id":"6XFsms-qsfe6XyNOIg6FOQ","categories":["Diners","Canadian (New)","Restaurants"],"city":"Montréal","review_count":306,"name":"Deville Dinerbar","neighborhoods":["Ville-Marie"],"longitude":-73.5741,"state":"QC","stars":4,"latitude":45.4997},{"business_id":"tUd0NX6dXrOsQEtFEw1Zsw","categories":["Korean","Restaurants"],"city":"Montréal","review_count":12,"name":"Cinq Mille Ans","neighborhoods":["Plateau-Mont-Royal"],"longitude":-73.5682,"state":"QC","stars":3.5,"latitude":45.5175},{"business_id":"k5DMPNLkvX6T6EVpmEuscg","categories":["Indian","Restaurants"],"city":"Montréal","review_count":12,"name":"Restaurant rajastan","neighborhoods":["Plateau-Mont-Royal"],"longitude":-73.5705,"state":"QC","stars":2,"latitude":45.5182},{"business_id":"hwGVkbhz8BEzp0MQfGdG9A","categories":["Food","Coffee & Tea","Sandwiches","Restaurants"],"city":"Montréal","review_count":9,"name":"Dudley & Dudley","neighborhoods":["Plateau-Mont-Royal"],"longitude":-73.5814,"state":"QC","stars":4,"latitude":45.5309},{"business_id":"tpRK6D0EnL7F9CLTWsD6Zw","categories":["Korean","Restaurants"],"city":"Montréal","review_count":42,"name":"Omma","neighborhoods":["Plateau-Mont-Royal"],"longitude":-73.6044,"state":"QC","stars":4,"latitude":45.5251},{"business_id":"wIgnStKeqI_SW12oegTGrg","categories":["Restaurants"],"city":"Montréal","review_count":16,"name":"Ucan","neighborhoods":["Ville-Marie"],"longitude":-73.5797,"state":"QC","stars":2.5,"latitude":45.4932},{"business_id":"37HWJqE1uGcvMnqh1uARlw","categories":["Food","Diners","Food Trucks","Restaurants"],"city":"Montréal","review_count":7,"name":"Winneburger","neighborhoods":["Plateau-Mont-Royal"],"longitude":-73.6055,"state":"QC","stars":4,"latitude":45.5239},{"business_id":"2hIKRM-dQlQBzTIscqE6qw","categories":["Breakfast & Brunch","French","Restaurants"],"city":"Montréal","review_count":23,"name":"La Cervoise","neighborhoods":["Mercier-Hochelaga-Maisonneuve"],"longitude":-73.5418,"state":"QC","stars":4,"latitude":45.5492},{"business_id":"5PWcWwt0vyeTJs4Si-ndgQ","categories":["Burgers","Fast Food","Restaurants"],"city":"Montréal","review_count":6,"name":"McDonald's","neighborhoods":["Ville-Marie"],"longitude":-73.5771,"state":"QC","stars":2,"latitude":45.4958},{"business_id":"-uYu2cA8Z3auYhwtlT-VXg","categories":["Szechuan","Chinese","Restaurants"],"city":"Montréal","review_count":3,"name":"Tapioca Thé","neighborhoods":["Ville-Marie"],"longitude":-73.5804,"state":"QC","stars":3.5,"latitude":45.4947},{"business_id":"I0OlH5vvmwuRfwQq9ccuyQ","categories":["French","Restaurants"],"city":"Montreal","review_count":5,"name":"Cafe Le Petit Flore","neighborhoods":["Ahunstic-Cartierville"],"longitude":-73.659,"state":"QC","stars":3.5,"latitude":45.5587},{"business_id":"_2HWFHK32CRER39vR40oRQ","categories":["Pizza","Hot Dogs","Sandwiches","Restaurants"],"city":"Montréal","review_count":8,"name":"Royal Sous-Marins","neighborhoods":["Plateau-Mont-Royal"],"longitude":-73.6022,"state":"QC","stars":3.5,"latitude":45.527},{"business_id":"LzaKn3oLAZzLaLggNOTG2w","categories":["Brasseries","Bars","Nightlife","Restaurants"],"city":"Montréal","review_count":17,"name":"Le Chasseur","neighborhoods":["Mercier-Hochelaga-Maisonneuve"],"longitude":-73.5427,"state":"QC","stars":3.5,"latitude":45.5482},{"business_id":"kSmas-OA8U_jHs5Vi2oB6w","categories":["Food","Bakeries","Coffee & Tea","Sandwiches","Restaurants"],"city":"Montréal","review_count":20,"name":"Le Pain dans les Voiles","neighborhoods":["Villeray-Saint-Michel-Parc-Extension"],"longitude":-73.6178,"state":"QC","stars":4.5,"latitude":45.5385},{"business_id":"94ClwBungsBEzhN0jED5gA","categories":["Japanese","Restaurants"],"city":"Montréal","review_count":3,"name":"Restaurant Yakatabune","neighborhoods":["Côte-des-Neiges"],"longitude":-73.6238,"state":"QC","stars":5,"latitude":45.4968},{"business_id":"jfD79Z9JKPMMDvcNZ_XrjA","categories":["Bars","Restaurants","Nightlife","Italian"],"city":"Montréal","review_count":20,"name":"Restaurant Rosalie","neighborhoods":["Ville-Marie"],"longitude":-73.5746,"state":"QC","stars":3,"latitude":45.4974},{"business_id":"juhvbcenX8XIMaNgVXvxWw","categories":["Food","Specialty Food","Meat Shops","Canadian (New)","Restaurants"],"city":"Montréal","review_count":7,"name":"Le Canard Libéré","neighborhoods":["Plateau-Mont-Royal"],"longitude":-73.5849,"state":"QC","stars":4,"latitude":45.5194},{"business_id":"qRs0FXkxqMXHgkPVW4XXeA","categories":["Sushi Bars","Japanese","Restaurants"],"city":"Montréal","review_count":35,"name":"Restaurant Sho-Dan","neighborhoods":["Ville-Marie"],"longitude":-73.5746,"state":"QC","stars":3.5,"latitude":45.5017},{"business_id":"_ku5mlOIicSVVeXJWZnV4g","categories":["Sushi Bars","Restaurants"],"city":"Montréal","review_count":5,"name":"Sushi 426","neighborhoods":["Villeray-Saint-Michel-Parc-Extension"],"longitude":-73.6226,"state":"QC","stars":4,"latitude":45.5412},{"business_id":"wo-AvCVatUKqlipkM60vHA","categories":["Breakfast & Brunch","Sandwiches","Salad","Restaurants"],"city":"Montréal","review_count":9,"name":"Da Fino's","neighborhoods":["Ville-Marie"],"longitude":-73.5581,"state":"QC","stars":4.5,"latitude":45.5159},{"business_id":"7VfpGBhKafz38mVLSyygJg","categories":["Modern European","Canadian (New)","Restaurants"],"city":"Montréal","review_count":12,"name":"Cafeteria Resto-Bar","neighborhoods":["Plateau-Mont-Royal"],"longitude":-73.5723,"state":"QC","stars":4,"latitude":45.5139},{"business_id":"OvKQgDuBlErmjCntx6Rdrw","categories":["Cajun/Creole","American (Traditional)","Canadian (New)","Restaurants"],"city":"Montréal","review_count":100,"name":"Cinko","neighborhoods":["Ville-Marie"],"longitude":-73.5632,"state":"QC","stars":4,"latitude":45.515},{"business_id":"zNW9L58utBlWX0DhkajgWQ","categories":["Pizza","Restaurants"],"city":"Montréal","review_count":3,"name":"Double Pizza","neighborhoods":["Côte-des-Neiges"],"longitude":-73.6274,"state":"QC","stars":1.5,"latitude":45.4855},{"business_id":"bY3a-IBFfvnrgbP2s4J5uw","categories":["Tapas/Small Plates","Sushi Bars","Restaurants"],"city":"Montréal","review_count":5,"name":"Ori Resto Lounge","neighborhoods":["Plateau-Mont-Royal"],"longitude":-73.5687,"state":"QC","stars":4,"latitude":45.5174},{"business_id":"BYXMX6n8aLLDgoxIFbYySw","categories":["Arts & Entertainment","Cafes","Bars","Nightlife","Social Clubs","Restaurants"],"city":"Montréal","review_count":12,"name":"Maison Sociale","neighborhoods":["Plateau-Mont-Royal"],"longitude":-73.5973,"state":"QC","stars":3,"latitude":45.525},{"business_id":"ela9Je2E3cvqKKA8n9jZMg","categories":["Nightlife","Breakfast & Brunch","Bars","French","Restaurants"],"city":"Montréal","review_count":33,"name":"Restaurant Renoir","neighborhoods":["Ville-Marie"],"longitude":-73.5773,"state":"QC","stars":4,"latitude":45.5015},{"business_id":"E8o881o5N2ugYNN6HphqCQ","categories":["Canadian (New)","Restaurants"],"city":"Montréal","review_count":7,"name":"Circos","neighborhoods":["Plateau-Mont-Royal"],"longitude":-73.5714,"state":"QC","stars":3,"latitude":45.5078},{"business_id":"akWTJZjDWCQN_eb4LaRtXw","categories":["Canadian (New)","Restaurants"],"city":"Montréal","review_count":13,"name":"Mile-Ex Restaurant","neighborhoods":["Rosemont-La Petite-Patrie"],"longitude":-73.6143,"state":"QC","stars":5,"latitude":45.5286},{"business_id":"r-J2u4W6jUOHrwgKd88Lrw","categories":["Pizza","Mediterranean","Restaurants"],"city":"Montréal","review_count":10,"name":"Jane","neighborhoods":["Sud-Ouest"],"longitude":-73.5683,"state":"QC","stars":4,"latitude":45.4885},{"business_id":"CtQIS6qIEp6ZdxyccMrdYA","categories":["Canadian (New)","Restaurants"],"city":"Montréal","review_count":8,"name":"Pho Ngon","neighborhoods":["Villeray-Saint-Michel-Parc-Extension"],"longitude":-73.6079,"state":"QC","stars":3.5,"latitude":45.5622},{"business_id":"SixCP_nHQlD2hnwQ5P7_Ew","categories":["Pizza","Restaurants"],"city":"Montréal","review_count":8,"name":"Watts","neighborhoods":["Plateau-Mont-Royal"],"longitude":-73.573,"state":"QC","stars":3.5,"latitude":45.5189},{"business_id":"e8Xh5J6w4UngNoiRc5hLNQ","categories":["Asian Fusion","French","Restaurants"],"city":"Montréal","review_count":6,"name":"Gourmet Asian Fusion","neighborhoods":["Plateau-Mont-Royal"],"longitude":-73.5768,"state":"QC","stars":4,"latitude":45.521},{"business_id":"pF3BJP36G2hyNL54Y0_TzA","categories":["Thai","Fast Food","Restaurants"],"city":"Montréal","review_count":3,"name":"Thai Express","neighborhoods":["Côte-des-Neiges"],"longitude":-73.6269,"state":"QC","stars":3,"latitude":45.4982},{"business_id":"HK8ugUsZsW-zFnpOTf9NgQ","categories":["Middle Eastern","Restaurants"],"city":"Montréal","review_count":10,"name":"Lallouz Café & Kébaberie","neighborhoods":["Ville-Marie"],"longitude":-73.5575,"state":"QC","stars":4.5,"latitude":45.517},{"business_id":"NMKnRYoibGWYgBjklfE2xw","categories":["French","Restaurants"],"city":"Montréal","review_count":3,"name":"La Presqu'ile","neighborhoods":["Rosemont-La Petite-Patrie"],"longitude":-73.5745,"state":"QC","stars":3,"latitude":45.5489},{"business_id":"bGF2RANM6J8SGjIFAhZwXw","categories":["Chinese","Restaurants"],"city":"Montreal","review_count":23,"name":"Mon Shing","neighborhoods":["Ville-Marie"],"longitude":-73.5605,"state":"QC","stars":3,"latitude":45.507},{"business_id":"dbMpGh4p9dTxSn5lDSKE3w","categories":["Breakfast & Brunch","Cafes","Restaurants"],"city":"Montréal","review_count":29,"name":"Toi, Moi Et Café","neighborhoods":["Sud-Ouest"],"longitude":-73.577,"state":"QC","stars":3,"latitude":45.482},{"business_id":"SSt0xNoYdwtMOp4CYuvMbA","categories":["Restaurants","Italian"],"city":"Montréal","review_count":9,"name":"Boccondivino","neighborhoods":["Ville-Marie"],"longitude":-73.5531,"state":"QC","stars":4.5,"latitude":45.5058},{"business_id":"AQoIv95mBZJzcY1jyoZipg","categories":["Japanese","Restaurants"],"city":"Montréal","review_count":44,"name":"Bistro Japonais Furusato","neighborhoods":["Plateau-Mont-Royal","Ville-Marie"],"longitude":-73.5708,"state":"QC","stars":4,"latitude":45.5081},{"business_id":"OXOyvHkeVNXi68e-aNFt_A","categories":["Argentine","Restaurants"],"city":"Montréal","review_count":3,"name":"Casa Gaucho","neighborhoods":["Plateau-Mont-Royal"],"longitude":-73.6064,"state":"QC","stars":2.5,"latitude":45.5239},{"business_id":"2cughmchl1LmKp8jQVDP1g","categories":["Canadian (New)","Restaurants"],"city":"Montréal","review_count":3,"name":"Restaurant Cafe Promenades Saint-Hubert","neighborhoods":["Rosemont-La Petite-Patrie"],"longitude":-73.6026,"state":"QC","stars":4,"latitude":45.5365},{"business_id":"_Mkp-ZD_TSmLAjR-BmBg7g","categories":["Mexican","Restaurants"],"city":"Montréal","review_count":55,"name":"La Capital Tacos","neighborhoods":["Ville-Marie"],"longitude":-73.5611,"state":"QC","stars":4,"latitude":45.5084},{"business_id":"mTMdXpjRi1tCJE272PHrHQ","categories":["Indian","Restaurants"],"city":"Montréal","review_count":4,"name":"Du Pain De l'Inde","neighborhoods":["Ville-Marie"],"longitude":-73.5674,"state":"QC","stars":4.5,"latitude":45.5116},{"business_id":"I7x4ukf2QrOmLqs48l5wIg","categories":["Bakeries","Food","Pizza","Middle Eastern","Restaurants"],"city":"Montréal","review_count":10,"name":"Al-Amine","neighborhoods":["Côte-des-Neiges"],"longitude":-73.6233,"state":"QC","stars":3.5,"latitude":45.4969},{"business_id":"PkBY2tn7VjAMgJT4cL-ZFA","categories":["Caribbean","Haitian","Restaurants"],"city":"Montréal","review_count":3,"name":"Casse-croûte Sissi & Paul","neighborhoods":["Villeray-Saint-Michel-Parc-Extension"],"longitude":-73.6021,"state":"QC","stars":5,"latitude":45.5539},{"business_id":"xGrM0QRKvwvOFl6tz5EdHg","categories":["Sandwiches","Restaurants"],"city":"Montréal","review_count":6,"name":"Edwinas Grilled Cheese","neighborhoods":["Notre-Dame-de-Grâce"],"longitude":-73.608,"state":"QC","stars":4,"latitude":45.4753},{"business_id":"wN0jORN-QcW7ogjvX5Rqmg","categories":["Cafes","Restaurants"],"city":"Montréal","review_count":4,"name":"Saint Cinnamon","neighborhoods":["Ville-Marie"],"longitude":-73.5658,"state":"QC","stars":2.5,"latitude":45.4996},{"business_id":"S5XiT-8F0XV9l6Zp9l-V5g","categories":["Korean","Food Court","Restaurants"],"city":"Montréal","review_count":3,"name":"Koryo Barbecue Coréen","neighborhoods":["Ville-Marie"],"longitude":-73.5724,"state":"QC","stars":3,"latitude":45.5023},{"business_id":"6tUz_RYIa82JVvAXR5nHwQ","categories":["Books, Mags, Music & Video","Restaurants","Shopping","French","Bookstores"],"city":"Montréal","review_count":13,"name":"Olivieri","neighborhoods":["Côte-des-Neiges"],"longitude":-73.6207,"state":"QC","stars":3.5,"latitude":45.4958},{"business_id":"Vhud7HXXJ4AcO3P3ByeIzw","categories":["Pizza","Restaurants"],"city":"Montréal","review_count":11,"name":"B & M Restaurant","neighborhoods":["Notre-Dame-de-Grâce"],"longitude":-73.6345,"state":"QC","stars":3.5,"latitude":45.4719},{"business_id":"rabX3XTO9jtf-OqUunfGvw","categories":["Food","Ice Cream & Frozen Yogurt","Cafes","Restaurants"],"city":"Montréal","review_count":6,"name":"Yeh! Yogourt Et Café","neighborhoods":["Ville-Marie"],"longitude":-73.5714,"state":"QC","stars":4,"latitude":45.5036},{"business_id":"m-5_nyV6i3mOoDnDsCdK_Q","categories":["Peruvian","Latin American","Restaurants"],"city":"Montréal","review_count":7,"name":"Restaurant Madre","neighborhoods":["Rosemont-La Petite-Patrie"],"longitude":-73.5747,"state":"QC","stars":3.5,"latitude":45.5485},{"business_id":"tM0kAQYli0O0qUrm-jHVDg","categories":["Bakeries","Food","Breakfast & Brunch","Restaurants"],"city":"Montréal","review_count":55,"name":"Au Pain Doré","neighborhoods":["Ville-Marie"],"longitude":-73.5731,"state":"QC","stars":4,"latitude":45.5003},{"business_id":"dua8728HOP3iBJrRj_YAFg","categories":["Food","Bagels","Delis","Restaurants"],"city":"Montréal","review_count":92,"name":"St Viateur Bagel Shop","neighborhoods":["Plateau-Mont-Royal"],"longitude":-73.6005,"state":"QC","stars":4.5,"latitude":45.5238},{"business_id":"mgcT7n5Ok9fV3voBqmGMJA","categories":["Middle Eastern","Restaurants"],"city":"Montréal","review_count":12,"name":"Amir Restaurant","neighborhoods":["Côte-des-Neiges"],"longitude":-73.6519,"state":"QC","stars":2.5,"latitude":45.4949},{"business_id":"YjeWJk86Ivp-5zKJIvY0Fg","categories":["Korean","Restaurants"],"city":"Montréal","review_count":14,"name":"Tianxia Restaurant Coreen","neighborhoods":["Ville-Marie"],"longitude":-73.5785,"state":"QC","stars":3.5,"latitude":45.4978},{"business_id":"AbTUfq23e0eTTDE5bDn57Q","categories":["Food","Juice Bars & Smoothies","Vegan","Restaurants"],"city":"Montréal","review_count":281,"name":"Aux Vivres","neighborhoods":["Plateau-Mont-Royal"],"longitude":-73.5883,"state":"QC","stars":4,"latitude":45.5212},{"business_id":"iVTP8HGyTTFCCZ5L06aQFg","categories":["Burgers","Restaurants"],"city":"Montréal","review_count":17,"name":"La Boulette","neighborhoods":["Rosemont-La Petite-Patrie"],"longitude":-73.5938,"state":"QC","stars":4,"latitude":45.5466},{"business_id":"cDq2PJBP3i5tTJ4G4_D24Q","categories":["Brasseries","Tapas Bars","Restaurants"],"city":"Montréal","review_count":3,"name":"Brasserie Cherrier","neighborhoods":["Plateau-Mont-Royal"],"longitude":-73.5702,"state":"QC","stars":3.5,"latitude":45.5179},{"business_id":"i_JJHaVhPdQHgi4qcQDp_g","categories":["Pakistani","Indian","Asian Fusion","Restaurants"],"city":"Montréal","review_count":4,"name":"Copacabana & Jay's  Scratch Kitchen","neighborhoods":["Plateau-Mont-Royal"],"longitude":-73.5783,"state":"QC","stars":3,"latitude":45.5163},{"business_id":"bOjDdn4IFXRDGuSLW-nCwg","categories":["Poutineries","Hot Dogs","Restaurants"],"city":"Montreal-Nord","review_count":19,"name":"Chez Ma Tante","neighborhoods":["Ahunstic-Cartierville"],"longitude":-73.6439,"state":"QC","stars":4.5,"latitude":45.5795},{"business_id":"lUAYUl3Tpi_z3oG_JCXoDw","categories":["Chinese","Restaurants"],"city":"Montréal","review_count":6,"name":"Mr. Gao","neighborhoods":["Ville-Marie"],"longitude":-73.5788,"state":"QC","stars":4.5,"latitude":45.4959},{"business_id":"ziHR6az88Vt-I97tGeblQg","categories":["Sandwiches","Restaurants"],"city":"Montréal","review_count":7,"name":"Pita Pit","neighborhoods":["Plateau-Mont-Royal"],"longitude":-73.575,"state":"QC","stars":3,"latitude":45.5103},{"business_id":"Xj-zqnKuXCfiCJDWQM99Eg","categories":["Korean","Restaurants"],"city":"Montréal","review_count":45,"name":"La Maison Bulgogi","neighborhoods":["Ville-Marie"],"longitude":-73.5827,"state":"QC","stars":2.5,"latitude":45.4911},{"business_id":"e2wph-eQnzFeVb4X-Ewisw","categories":["Creperies","Restaurants"],"city":"Montréal","review_count":29,"name":"Crêperie du Marché","neighborhoods":["Rosemont-La Petite-Patrie"],"longitude":-73.6151,"state":"QC","stars":4,"latitude":45.5369},{"business_id":"g0LpvVEtshhEzOFJ6RuFZA","categories":["Breakfast & Brunch","Sandwiches","Salad","Restaurants"],"city":"Montréal","review_count":3,"name":"La Prep","neighborhoods":["Ville-Marie"],"longitude":-73.5606,"state":"QC","stars":3.5,"latitude":45.5009},{"business_id":"AT8GGyW0MaNVHiGQ1VQ_QA","categories":["Chinese","Restaurants"],"city":"Montréal","review_count":29,"name":"Mai Xiang Yuan","neighborhoods":["Ville-Marie"],"longitude":-73.5809,"state":"QC","stars":4,"latitude":45.4925},{"business_id":"-024YEtnIsPQCrMSHCKLQw","categories":["Cafes","Restaurants"],"city":"Montréal","review_count":4,"name":"Presse Cafe","neighborhoods":["Ville-Marie"],"longitude":-73.5651,"state":"QC","stars":3.5,"latitude":45.5157},{"business_id":"Gd24R5M3-sxt3TfsoplmgA","categories":["Restaurants","Italian"],"city":"Montréal","review_count":8,"name":"Ottavio","neighborhoods":["Saint-Léonard"],"longitude":-73.5708,"state":"QC","stars":3.5,"latitude":45.5957},{"business_id":"7jXa8V1n5rn-zSdRpzNH5A","categories":["Chinese","Restaurants"],"city":"Montréal","review_count":44,"name":"Sammi & Soupe Dumpling","neighborhoods":["Ville-Marie"],"longitude":-73.5808,"state":"QC","stars":4,"latitude":45.4927},{"business_id":"Wn9K0O010E81YYsM1BTBCQ","categories":["Restaurants","Pizza","Italian"],"city":"Montréal","review_count":9,"name":"Pizzaiolle","neighborhoods":["Plateau-Mont-Royal"],"longitude":-73.5864,"state":"QC","stars":3.5,"latitude":45.5257},{"business_id":"qXgmZOhM63hgOfJKmADR7g","categories":["French","Restaurants"],"city":"Montréal","review_count":10,"name":"Le St-Urbain","neighborhoods":["Ahunstic-Cartierville"],"longitude":-73.6658,"state":"QC","stars":3.5,"latitude":45.547},{"business_id":"4AqbYJcW3ciwAphEjLpXRQ","categories":["Canadian (New)","Restaurants"],"city":"Montréal","review_count":3,"name":"Brasero Hardi","neighborhoods":["Ville-Marie"],"longitude":-73.5549,"state":"QC","stars":3.5,"latitude":45.5036},{"business_id":"8AS3dlN-Y3UG26elbF-jgg","categories":["Indian","Restaurants"],"city":"Montréal","review_count":4,"name":"Le Roi de L'Inde","neighborhoods":["Plateau-Mont-Royal"],"longitude":-73.5686,"state":"QC","stars":3,"latitude":45.5173},{"business_id":"HNEd5x3oeXd0_ejLP0uEQQ","categories":["Canadian (New)","Restaurants"],"city":"Montréal","review_count":5,"name":"Les Sottises","neighborhoods":["Sud-Ouest"],"longitude":-73.5618,"state":"QC","stars":4,"latitude":45.4832},{"business_id":"OgbmQOU79dPunQNlzPzsEQ","categories":["Cafes","French","Restaurants"],"city":"Montréal","review_count":30,"name":"Alexandre et Fils","neighborhoods":["Ville-Marie"],"longitude":-73.5742,"state":"QC","stars":3,"latitude":45.5005},{"business_id":"lqP9T2YRLLqgJ-5AYwTfCA","categories":["Food","Delicatessen","Restaurants","Italian"],"city":"Montréal","review_count":7,"name":"Officina Travaglini et Chef Gadeau","neighborhoods":["Rosemont-La Petite-Patrie"],"longitude":-73.6144,"state":"QC","stars":4.5,"latitude":45.5347},{"business_id":"kzpjcjuRbzY2fJE-qxR-gg","categories":["Bars","Mexican","Nightlife","Restaurants"],"city":"Montréal","review_count":6,"name":"Tacos El Gordos","neighborhoods":["Sud-Ouest"],"longitude":-73.5753,"state":"QC","stars":2,"latitude":45.4827},{"business_id":"9bed6C8llt9L8nYfKolhrw","categories":["Halal","Middle Eastern","Sandwiches","Restaurants"],"city":"Montréal","review_count":12,"name":"Walima Restaurant","neighborhoods":["Ville-Marie"],"longitude":-73.5765,"state":"QC","stars":5,"latitude":45.4951},{"business_id":"XZ-FSFJWchQTfZ5gQFncuw","categories":["Breakfast & Brunch","Restaurants"],"city":"Montréal","review_count":19,"name":"La Boîte Gourmande","neighborhoods":["Plateau-Mont-Royal"],"longitude":-73.5893,"state":"QC","stars":3.5,"latitude":45.5275},{"business_id":"LXgYuzuVgUyGids9i3pM9g","categories":["Pizza","Restaurants"],"city":"Montréal","review_count":7,"name":"Ville Emard Pizza & Submarines","neighborhoods":["Sud-Ouest"],"longitude":-73.5882,"state":"QC","stars":5,"latitude":45.4577},{"business_id":"N3XhpaaNqSF18RCMS_PBNQ","categories":["French","Restaurants"],"city":"Montréal","review_count":6,"name":"Restaurant Le Maistre","neighborhoods":["Notre-Dame-de-Grâce"],"longitude":-73.6238,"state":"QC","stars":4,"latitude":45.4745},{"business_id":"WnKo4iXs5xPceY5PrZO1oA","categories":["Sushi Bars","Restaurants"],"city":"Montréal","review_count":4,"name":"Genki Sushi","neighborhoods":["Mercier-Hochelaga-Maisonneuve"],"longitude":-73.5467,"state":"QC","stars":4,"latitude":45.5763},{"business_id":"hClURGksF_tnB1kFut9zPg","categories":["Barbeque","Restaurants"],"city":"Montréal","review_count":24,"name":"Bofinger Barbecue Smokehouse","neighborhoods":["Notre-Dame-de-Grâce"],"longitude":-73.6153,"state":"QC","stars":2.5,"latitude":45.4711},{"business_id":"7DuHrdeK9J-wH_UlfZELvQ","categories":["Burgers","Restaurants"],"city":"Montréal","review_count":21,"name":"O'Burger","neighborhoods":["Ville-Marie"],"longitude":-73.5726,"state":"QC","stars":3,"latitude":45.5027},{"business_id":"dELs0VO0zM0KphfwwVpO9A","categories":["Bars","Latin American","Mexican","Cocktail Bars","Nightlife","Restaurants"],"city":"Montréal","review_count":35,"name":"Cartel","neighborhoods":["Plateau-Mont-Royal"],"longitude":-73.5957,"state":"QC","stars":4,"latitude":45.5226},{"business_id":"Ytjlk3q1UQtjM-r6pJ06zg","categories":["Chinese","Restaurants"],"city":"Montréal","review_count":20,"name":"KanBai","neighborhoods":["Ville-Marie"],"longitude":-73.5614,"state":"QC","stars":4,"latitude":45.5081},{"business_id":"Vh_n4t1qLlkdOUH6CF3xvg","categories":["Chinese","Restaurants"],"city":"Montréal","review_count":3,"name":"Restaurant Xi'An Lina Tang","neighborhoods":["Ville-Marie"],"longitude":-73.5599,"state":"QC","stars":3,"latitude":45.5082},{"business_id":"gzF-Uu4MUFZPOrQ3xi2sXg","categories":["Restaurants"],"city":"Montréal","review_count":5,"name":"Continental Restaurant","neighborhoods":["Plateau-Mont-Royal"],"longitude":-73.5778,"state":"QC","stars":4.5,"latitude":45.5218},{"business_id":"yynuErRHIKHO4jM__10u4w","categories":["Food","Coffee & Tea","Sandwiches","Salad","Restaurants"],"city":"Montréal","review_count":4,"name":"Il Panino Café Mediterraneo","neighborhoods":["Ville-Marie"],"longitude":-73.5788,"state":"QC","stars":4,"latitude":45.4958},{"business_id":"dyyoh-chJXdFHCwZPJSjuw","categories":["Canadian (New)","Restaurants"],"city":"Montréal","review_count":9,"name":"Provisions 1268","neighborhoods":["Outremont"],"longitude":-73.6137,"state":"QC","stars":5,"latitude":45.5216},{"business_id":"I4w1azz8aRY7GDyGYJ97fA","categories":["Sandwiches","Vietnamese","Asian Fusion","Restaurants"],"city":"Montréal","review_count":8,"name":"Ômai Prêt-à-Manger","neighborhoods":["Ville-Marie"],"longitude":-73.5685,"state":"QC","stars":4,"latitude":45.5044},{"business_id":"Q5DZRtaKqX_Yq7WPGfD8Ew","categories":["Fish & Chips","Restaurants"],"city":"Montréal","review_count":72,"name":"Comptoir 21","neighborhoods":["Plateau-Mont-Royal"],"longitude":-73.5994,"state":"QC","stars":4,"latitude":45.5255},{"business_id":"Ybk1ZEve8ZukH3lcfO2i0Q","categories":["Breakfast & Brunch","Cafes","Sandwiches","Restaurants"],"city":"Montréal","review_count":8,"name":"Café les Oubliettes","neighborhoods":["Rosemont-La Petite-Patrie"],"longitude":-73.6012,"state":"QC","stars":4,"latitude":45.5335},{"business_id":"BidMkfj2tTrt7mpBgjtYbA","categories":["Chinese","Restaurants"],"city":"Montréal","review_count":27,"name":"Dobe & Andy","neighborhoods":["Ville-Marie"],"longitude":-73.5619,"state":"QC","stars":4.5,"latitude":45.5078},{"business_id":"EERx8ioBQnVoL4QmMPu6Yw","categories":["Vietnamese","Food","Ethnic Food","Specialty Food","Thai","Restaurants"],"city":"Montréal","review_count":12,"name":"La Saigonaise","neighborhoods":["Côte-des-Neiges"],"longitude":-73.6278,"state":"QC","stars":4,"latitude":45.4989},{"business_id":"UVodE-2n3cErTrRDWUoZlA","categories":["Indian","Restaurants"],"city":"Montréal","review_count":4,"name":"Flavours of India","neighborhoods":["Villeray-Saint-Michel-Parc-Extension"],"longitude":-73.6257,"state":"QC","stars":4.5,"latitude":45.5243},{"business_id":"3c0YAPEToWiwDkxtNJFIgg","categories":["Food","Coffee & Tea","Cafes","Restaurants"],"city":"Montréal","review_count":170,"name":"Café Olimpico","neighborhoods":["Plateau-Mont-Royal"],"longitude":-73.6009,"state":"QC","stars":4.5,"latitude":45.524},{"business_id":"gZqibHT8CGVP_tKsNbwl1A","categories":["Italian","Bars","Pizza","Nightlife","Restaurants"],"city":"Montréal","review_count":6,"name":"Un Autre Restaurant","neighborhoods":["Plateau-Mont-Royal"],"longitude":-73.601,"state":"QC","stars":5,"latitude":45.5232},{"business_id":"PTar10ahzWnyEZ2iWiylOw","categories":["Restaurants"],"city":"Montréal","review_count":8,"name":"Chez Gatsé","neighborhoods":["Ville-Marie"],"longitude":-73.5658,"state":"QC","stars":4,"latitude":45.5151},{"business_id":"_qZfxjo5_npoJNmycYG7aA","categories":["Latin American","Salvadoran","Restaurants"],"city":"Montréal","review_count":6,"name":"Restaurant Iris","neighborhoods":["Villeray-Saint-Michel-Parc-Extension"],"longitude":-73.6306,"state":"QC","stars":4.5,"latitude":45.5397},{"business_id":"R2vqYVQcs-lIMFRfCi09ww","categories":["Vietnamese","Barbeque","Restaurants"],"city":"Montréal","review_count":7,"name":"Le Tonkin","neighborhoods":["Rosemont-La Petite-Patrie"],"longitude":-73.6102,"state":"QC","stars":3.5,"latitude":45.5309},{"business_id":"G8qH6TbfEhoYmS9KZM2Hfg","categories":["Chinese","Restaurants"],"city":"Montréal","review_count":4,"name":"Panda Express","neighborhoods":["Mercier-Hochelaga-Maisonneuve"],"longitude":-73.5345,"state":"QC","stars":4,"latitude":45.5505},{"business_id":"4Xxn-AJVHo5r0wwBzdBpiw","categories":["Breakfast & Brunch","Restaurants"],"city":"Montréal","review_count":13,"name":"Au p'tit cochon santé","neighborhoods":["Sud-Ouest"],"longitude":-73.5863,"state":"QC","stars":3.5,"latitude":45.4754},{"business_id":"daE_4Rpi0yEa-dC-Pr3TWw","categories":["Soup","Restaurants"],"city":"Montréal","review_count":4,"name":"Soupe Café","neighborhoods":["Sud-Ouest"],"longitude":-73.5774,"state":"QC","stars":3.5,"latitude":45.4817},{"business_id":"I-IkOxb--wDOlRpRON6lPA","categories":["Mexican","Restaurants"],"city":"Montréal","review_count":3,"name":"Socialito","neighborhoods":["Plateau-Mont-Royal"],"longitude":-73.5999,"state":"QC","stars":3.5,"latitude":45.525},{"business_id":"GvxDU58S0Nah_2qJprI0ww","categories":["Breakfast & Brunch","Restaurants"],"city":"Montréal","review_count":56,"name":"L'Oeufrier","neighborhoods":["Ville-Marie"],"longitude":-73.5576,"state":"QC","stars":4,"latitude":45.5179},{"business_id":"quNvbRN4_-OhAfVtGHjQ8Q","categories":["Italian","Bars","Pizza","Nightlife","Restaurants"],"city":"Montréal","review_count":132,"name":"BEVO Bar + Pizzeria","neighborhoods":["Ville-Marie"],"longitude":-73.5536,"state":"QC","stars":4,"latitude":45.5072},{"business_id":"1I_lxaBBCK4TqYliZhfokg","categories":["Sandwiches","Restaurants"],"city":"Montréal","review_count":3,"name":"MStar Sandwich","neighborhoods":["Côte-des-Neiges"],"longitude":-73.6238,"state":"QC","stars":4.5,"latitude":45.4969},{"business_id":"6yKQXCTaVC1zWM7JDK1Kfg","categories":["Mexican","Restaurants"],"city":"Montréal","review_count":10,"name":"Chez Frida","neighborhoods":["Côte-des-Neiges"],"longitude":-73.6269,"state":"QC","stars":3,"latitude":45.4986},{"business_id":"AisKSJwsP9a6bq_N7EiFZA","categories":["Wine Bars","Bars","Nightlife","French","Restaurants"],"city":"Montréal","review_count":332,"name":"Les Deux Gamins","neighborhoods":["Plateau-Mont-Royal"],"longitude":-73.5711,"state":"QC","stars":4,"latitude":45.5155},{"business_id":"qMfSBBGXlzxUIf76dqhqSA","categories":["Thai","Restaurants"],"city":"Montréal","review_count":7,"name":"La Maison Thai","neighborhoods":["Plateau-Mont-Royal"],"longitude":-73.5759,"state":"QC","stars":3,"latitude":45.5153},{"business_id":"cqqJmIfZbOPGnSqnn2Sp5Q","categories":["Mediterranean","Restaurants"],"city":"Montréal","review_count":5,"name":"Awawa Pastillas & Saveurs","neighborhoods":["Ville-Marie"],"longitude":-73.5748,"state":"QC","stars":4,"latitude":45.4989},{"business_id":"BiDC7G5jBUqv2nu-XDPVlQ","categories":["French","Restaurants"],"city":"Montréal","review_count":7,"name":"Restaurant Le Caveau","neighborhoods":["Ville-Marie"],"longitude":-73.5732,"state":"QC","stars":3.5,"latitude":45.5041},{"business_id":"ks594j0J8W_OdJVcDgP5Kg","categories":["Seafood","Restaurants"],"city":"Montréal","review_count":39,"name":"Lucille's Oyster Dive","neighborhoods":["Notre-Dame-de-Grâce"],"longitude":-73.6229,"state":"QC","stars":3.5,"latitude":45.4752},{"business_id":"a2BXZhSKZqQtIsMJmMQtQw","categories":["Japanese","Restaurants"],"city":"Montréal","review_count":9,"name":"Marusan","neighborhoods":["Ville-Marie"],"longitude":-73.5594,"state":"QC","stars":5,"latitude":45.5016},{"business_id":"6ZlNip_ZXYzb-dlzqGkC4g","categories":["Vietnamese","Restaurants"],"city":"Montréal","review_count":36,"name":"Pho Cali","neighborhoods":["Ville-Marie"],"longitude":-73.5595,"state":"QC","stars":3,"latitude":45.508},{"business_id":"UnNAL60A7naddBMhaMDHVw","categories":["Restaurants"],"city":"Montréal","review_count":3,"name":"Orama Grillade Grecque","neighborhoods":["Villeray-Saint-Michel-Parc-Extension"],"longitude":-73.6204,"state":"QC","stars":4.5,"latitude":45.5295},{"business_id":"0dC-uC4Lf-Ks4DEID22X8w","categories":["Delis","Sandwiches","Restaurants"],"city":"Montréal","review_count":7,"name":"Restaurant Euro Deli","neighborhoods":["Plateau-Mont-Royal"],"longitude":-73.573,"state":"QC","stars":4,"latitude":45.5142},{"business_id":"NeT9SPNHyI1U7FJt5BBCMQ","categories":["Korean","Restaurants"],"city":"Montréal","review_count":9,"name":"Restaurant Manna","neighborhoods":["Ville-Marie"],"longitude":-73.5769,"state":"QC","stars":3,"latitude":45.4971},{"business_id":"pyH_BIKod12-Vg-UUAVhlg","categories":["Restaurants","Mediterranean","Pizza","Italian"],"city":"Montréal","review_count":30,"name":"Corso 1471","neighborhoods":["Ville-Marie"],"longitude":-73.5772,"state":"QC","stars":3,"latitude":45.4981},{"business_id":"EogXTwuUMjSttclIs1092Q","categories":["Creperies","Gluten-Free","Restaurants"],"city":"Montréal","review_count":21,"name":"La Crêpière","neighborhoods":["Plateau-Mont-Royal"],"longitude":-73.6016,"state":"QC","stars":4.5,"latitude":45.5231},{"business_id":"Cz5q7nnjzJOwg8eCGQbgaA","categories":["Breakfast & Brunch","Restaurants"],"city":"Montréal","review_count":11,"name":"L'Eggs Oeufs Du Marché","neighborhoods":["Rosemont-La Petite-Patrie"],"longitude":-73.6171,"state":"QC","stars":3,"latitude":45.5352},{"business_id":"qZi89e_d6RyooGH9LEvFEQ","categories":["Pizza","Restaurants"],"city":"Montréal","review_count":24,"name":"Pizza Chez Dany","neighborhoods":["Ville-Marie"],"longitude":-73.5748,"state":"QC","stars":3.5,"latitude":45.4978},{"business_id":"xTluZ-CVz18esCjeMxUuGg","categories":["Caterers","Event Planning & Services","Restaurants"],"city":"Montréal","review_count":19,"name":"Al Dente Trattoria","neighborhoods":["Notre-Dame-de-Grâce"],"longitude":-73.6243,"state":"QC","stars":4,"latitude":45.4736},{"business_id":"kNgtrZBWr8n22YnboNV_hA","categories":["Bars","Arts & Entertainment","Nightlife","Cabaret","Barbeque","Restaurants"],"city":"Montréal","review_count":3,"name":"Jersey's Saloon","neighborhoods":["Notre-Dame-de-Grâce"],"longitude":-73.6142,"state":"QC","stars":3,"latitude":45.4715},{"business_id":"QwUeW3R85e__QAX6Sdu_kQ","categories":["Sandwiches","Restaurants"],"city":"Montréal","review_count":4,"name":"A La Saj","neighborhoods":["Ville-Marie"],"longitude":-73.5802,"state":"QC","stars":3,"latitude":45.4974},{"business_id":"H6zB6IjGeC2LLg0XOVnoMQ","categories":["Bars","Tapas Bars","French","Wine Bars","Nightlife","Restaurants"],"city":"Montréal","review_count":3,"name":"Baravin","neighborhoods":["Ville-Marie"],"longitude":-73.5644,"state":"QC","stars":4.5,"latitude":45.5157},{"business_id":"dlf3VARfcFZfR9_4eab7-Q","categories":["Thai","Restaurants"],"city":"Montréal","review_count":15,"name":"La Belle Thailandaise","neighborhoods":["Plateau-Mont-Royal"],"longitude":-73.5834,"state":"QC","stars":3.5,"latitude":45.524},{"business_id":"3tn6_FOaH4jDbBI_DDQl4Q","categories":["Cafes","Restaurants"],"city":"Montréal","review_count":7,"name":"Café Ferlucci","neighborhoods":["Villeray-Saint-Michel-Parc-Extension"],"longitude":-73.617,"state":"QC","stars":4.5,"latitude":45.5395},{"business_id":"D-M0GgCnQEpLfwEgDquVAg","categories":["Fish & Chips","Restaurants"],"city":"Montréal","review_count":33,"name":"Comptoir 21","neighborhoods":["Ville-Marie"],"longitude":-73.557,"state":"QC","stars":4.5,"latitude":45.5178},{"business_id":"LKsPRVP18GPXeH8Ufs7CMw","categories":["French","Restaurants"],"city":"Montréal","review_count":20,"name":"Chez Chose","neighborhoods":["Plateau-Mont-Royal"],"longitude":-73.5831,"state":"QC","stars":4.5,"latitude":45.5239},{"business_id":"gTn_kgLtX-wsj7TPTq47mA","categories":["Vegetarian","Sandwiches","Restaurants"],"city":"Montréal","review_count":138,"name":"Café Santropol","neighborhoods":["Plateau-Mont-Royal"],"longitude":-73.5805,"state":"QC","stars":4,"latitude":45.5156},{"business_id":"yXga5Xoc5fe-G_yAPGU8wA","categories":["French","Restaurants"],"city":"Montréal","review_count":4,"name":"Restaurant Le Prince Arthur","neighborhoods":["Plateau-Mont-Royal"],"longitude":-73.5721,"state":"QC","stars":3.5,"latitude":45.5145},{"business_id":"CfkVs26tVcosDI6IDxKs6w","categories":["Breakfast & Brunch","Restaurants"],"city":"Montréal","review_count":26,"name":"Orange Cafe","neighborhoods":["Notre-Dame-de-Grâce"],"longitude":-73.6157,"state":"QC","stars":3.5,"latitude":45.4776},{"business_id":"LCaM4_fWmSwsrYr9asXCBw","categories":["Mexican","Tex-Mex","Restaurants"],"city":"Montréal","review_count":13,"name":"M. Burrito","neighborhoods":["Plateau-Mont-Royal"],"longitude":-73.5805,"state":"QC","stars":2.5,"latitude":45.5267},{"business_id":"0XKW_jUfxG8ViW1d2VVNTQ","categories":["Fast Food","Canadian (New)","Restaurants"],"city":"Montréal","review_count":40,"name":"Five Guys","neighborhoods":["Ville-Marie"],"longitude":-73.5705,"state":"QC","stars":3.5,"latitude":45.5025},{"business_id":"rYqxi8mRF1gxYIJgmE12FA","categories":["Breakfast & Brunch","Creperies","Restaurants"],"city":"Montréal","review_count":4,"name":"Crepe De Gerard","neighborhoods":["Ville-Marie"],"longitude":-73.5715,"state":"QC","stars":2.5,"latitude":45.5028},{"business_id":"evpAmvJMiHtGnBZe5l0UNA","categories":["Restaurants"],"city":"Montréal","review_count":6,"name":"Petit Bistro Le","neighborhoods":["Ville-Marie"],"longitude":-73.5497,"state":"QC","stars":4.5,"latitude":45.5278},{"business_id":"c5VkyefVm_u65A5AGAWKMQ","categories":["Breakfast & Brunch","Cafes","Canadian (New)","Restaurants"],"city":"Montréal","review_count":30,"name":"Les Affamés","neighborhoods":["Mercier-Hochelaga-Maisonneuve"],"longitude":-73.5352,"state":"QC","stars":4.5,"latitude":45.549},{"business_id":"CJ6qMw-jGY5Gs4H1JiT-vw","categories":["Food","Desserts","Restaurants","Canadian (New)","Italian"],"city":"Montréal","review_count":18,"name":"O Noir Restaurant","neighborhoods":["Plateau-Mont-Royal"],"longitude":-73.5714,"state":"QC","stars":5,"latitude":45.5151},{"business_id":"eAtofUOlEpoQTfO1ybNhyg","categories":["Burgers","Fast Food","Restaurants"],"city":"Montréal","review_count":6,"name":"A&W","neighborhoods":["Ville-Marie"],"longitude":-73.5792,"state":"QC","stars":4,"latitude":45.496},{"business_id":"KKgGH_ko75G4IOlvxa6M_w","categories":["Cafes","Restaurants"],"city":"Montréal","review_count":5,"name":"Presse Café","neighborhoods":["Plateau-Mont-Royal"],"longitude":-73.5719,"state":"QC","stars":2.5,"latitude":45.5137},{"business_id":"1vIAawRHa5wZ7-qmDS25dQ","categories":["Wine Bars","Bars","Cafes","Nightlife","Restaurants"],"city":"Montréal","review_count":16,"name":"Larry's","neighborhoods":["Plateau-Mont-Royal"],"longitude":-73.5947,"state":"QC","stars":4,"latitude":45.5241},{"business_id":"6MhuRbTslAHs7CGG7wQgRQ","categories":["Chinese","Restaurants"],"city":"Montréal","review_count":88,"name":"Restaurant Beijing","neighborhoods":["Ville-Marie"],"longitude":-73.5606,"state":"QC","stars":3.5,"latitude":45.507},{"business_id":"kQSZ6yn2VuPsMfoq93KYbA","categories":["French","Restaurants"],"city":"Montréal","review_count":3,"name":"French Connection Montréal","neighborhoods":["Plateau-Mont-Royal"],"longitude":-73.5893,"state":"QC","stars":4.5,"latitude":45.5215},{"business_id":"eqQRWWz6y2EvVFHNal7IFg","categories":["Korean","Restaurants"],"city":"Montréal","review_count":33,"name":"Mon Ami","neighborhoods":["Notre-Dame-de-Grâce"],"longitude":-73.6354,"state":"QC","stars":4.5,"latitude":45.4705},{"business_id":"-vYXWPTZQ_XI3UZ2IyZ00Q","categories":["French","Restaurants"],"city":"Montréal","review_count":168,"name":"Europea Restaurant","neighborhoods":["Ville-Marie"],"longitude":-73.5742,"state":"QC","stars":4.5,"latitude":45.4977},{"business_id":"LZv7qzY_RMvxrkMs-_ToIA","categories":["Pizza","Restaurants"],"city":"Montréal","review_count":4,"name":"Al's Sousmarins","neighborhoods":["Rivière-des-Prairies–Pointe-aux-Trembles"],"longitude":-73.5858,"state":"QC","stars":3,"latitude":45.6344},{"business_id":"iSUl71PQX_ruUlTsXX8f1A","categories":["French","Restaurants"],"city":"Montréal","review_count":22,"name":"La Brioche Lyonnaise","neighborhoods":["Ville-Marie"],"longitude":-73.5625,"state":"QC","stars":3,"latitude":45.5149},{"business_id":"GcOY0ngwMHDKykmhXPR7eg","categories":["Burgers","Fast Food","Restaurants"],"city":"Montréal","review_count":3,"name":"McDonald's","neighborhoods":["Saint-Laurent"],"longitude":-73.6838,"state":"QC","stars":2.5,"latitude":45.5131},{"business_id":"U3YvuujTwrZVK-XowrbB5Q","categories":["Cafes","Restaurants"],"city":"Montréal","review_count":18,"name":"Melk","neighborhoods":["Ville-Marie"],"longitude":-73.5721,"state":"QC","stars":4,"latitude":45.4985},{"business_id":"Az_bIO1deENM5q6GBA_FtQ","categories":["Restaurants"],"city":"Montréal","review_count":6,"name":"Aux Îles à Sucre","neighborhoods":["Plateau-Mont-Royal"],"longitude":-73.5709,"state":"QC","stars":5,"latitude":45.5368},{"business_id":"YVfot0Aqw2JKp8RuAs0VPg","categories":["Canadian (New)","Restaurants"],"city":"Montréal","review_count":5,"name":"Soupesoup Crescent","neighborhoods":["Ville-Marie"],"longitude":-73.5787,"state":"QC","stars":3.5,"latitude":45.4987},{"business_id":"3iVnX0HpaQEPFSlWVZ37HA","categories":["Gluten-Free","Mexican","Restaurants"],"city":"Montréal","review_count":62,"name":"Ta Chido","neighborhoods":["Plateau-Mont-Royal"],"longitude":-73.6032,"state":"QC","stars":4,"latitude":45.5227},{"business_id":"S2kUbhLOVYTRChXSQ7qoNw","categories":["French","Restaurants"],"city":"Montréal","review_count":15,"name":"Pèlerin-Magellan","neighborhoods":["Ville-Marie"],"longitude":-73.5653,"state":"QC","stars":4,"latitude":45.5151},{"business_id":"hxkCasKFYQfujV3yPoxEFg","categories":["Portuguese","Restaurants"],"city":"Montréal","review_count":6,"name":"Papas","neighborhoods":["Plateau-Mont-Royal"],"longitude":-73.5718,"state":"QC","stars":3,"latitude":45.5137},{"business_id":"vAeB5D_us9PSOMHKngBFVg","categories":["Vietnamese","Restaurants"],"city":"Montréal","review_count":10,"name":"Restaurant Ong Ca Can","neighborhoods":["Ville-Marie"],"longitude":-73.5629,"state":"QC","stars":3.5,"latitude":45.5111},{"business_id":"3LEeSYDzA5_5pm2w3KysTg","categories":["French","Restaurants"],"city":"Montréal","review_count":15,"name":"Aix Cuisine du Terroir","neighborhoods":["Ville-Marie"],"longitude":-73.5578,"state":"QC","stars":3.5,"latitude":45.5055},{"business_id":"UW9q_26cX8fKqtO28n78AQ","categories":["French","Restaurants"],"city":"Montréal","review_count":153,"name":"Leméac","neighborhoods":["Outremont"],"longitude":-73.5972,"state":"QC","stars":4,"latitude":45.5183},{"business_id":"HLDnlawJKrWOHNuqcmKbZA","categories":["American (Traditional)","Restaurants"],"city":"Montréal","review_count":8,"name":"Aux Derniers Humains","neighborhoods":["Rosemont-La Petite-Patrie"],"longitude":-73.6122,"state":"QC","stars":4,"latitude":45.5371},{"business_id":"5Lpmxig_qPyXkWMNLrtVtg","categories":["Poutineries","Restaurants"],"city":"Montréal","review_count":16,"name":"Hippi Poutine","neighborhoods":["Plateau-Mont-Royal"],"longitude":-73.5688,"state":"QC","stars":3,"latitude":45.5175},{"business_id":"ifdB_oTP-FSfKbdUVrSWeA","categories":["Japanese","Restaurants"],"city":"Montréal","review_count":14,"name":"Toyo Grillades A La Japonaise","neighborhoods":["Ville-Marie"],"longitude":-73.5777,"state":"QC","stars":4,"latitude":45.4995},{"business_id":"riqOsCI_V5vcdCSMoivkFw","categories":["Vegetarian","Gluten-Free","Vegan","Restaurants"],"city":"Montréal","review_count":29,"name":"Crudessence","neighborhoods":["Plateau-Mont-Royal"],"longitude":-73.5832,"state":"QC","stars":4.5,"latitude":45.5166},{"business_id":"QicQ1wyzsrhTJ6D7XN0B6Q","categories":["Canadian (New)","Restaurants"],"city":"Montréal","review_count":98,"name":"O.Noir Restaurant","neighborhoods":["Ville-Marie"],"longitude":-73.5785,"state":"QC","stars":4,"latitude":45.4947},{"business_id":"Q0kUJ41DwSrNgm0VGvdWDQ","categories":["Restaurants","Pizza","Italian"],"city":"Montréal","review_count":33,"name":"Napoli Pizzeria","neighborhoods":["Ville-Marie"],"longitude":-73.5637,"state":"QC","stars":3,"latitude":45.5154},{"business_id":"iu_VCaw6u2xsCp4SjkeFHA","categories":["Pizza","Restaurants"],"city":"Montréal","review_count":4,"name":"Domino's Pizza","neighborhoods":["Plateau-Mont-Royal"],"longitude":-73.5823,"state":"QC","stars":2,"latitude":45.5176},{"business_id":"Nd4_ooFPQlB-5WGrysqu-A","categories":["Indian","Restaurants"],"city":"Montréal","review_count":13,"name":"Dev Restaurant","neighborhoods":["Côte-des-Neiges"],"longitude":-73.6362,"state":"QC","stars":3.5,"latitude":45.4939},{"business_id":"aNX-JFShrsgdeze1qxwlcw","categories":["Food","Desserts","Breakfast & Brunch","Cafes","Restaurants"],"city":"Montreal","review_count":27,"name":"Cacao 70","neighborhoods":["Plateau-Mont-Royal"],"longitude":-73.5733,"state":"QC","stars":4,"latitude":45.5094},{"business_id":"CGybVhubF3bv1p2Sx7-0wg","categories":["Burgers","Restaurants"],"city":"Montréal","review_count":54,"name":"Le Gourmet Burger","neighborhoods":["Ville-Marie"],"longitude":-73.5774,"state":"QC","stars":3,"latitude":45.4974},{"business_id":"OCIVR4SlMNx5iGjf8x5_Og","categories":["Vegetarian","Chinese","Restaurants"],"city":"Montréal","review_count":15,"name":"Su Shian Yuang","neighborhoods":["Plateau-Mont-Royal"],"longitude":-73.5777,"state":"QC","stars":3.5,"latitude":45.5222},{"business_id":"RuXJJtNdyaa3A1nGXEbMcw","categories":["Pizza","Restaurants"],"city":"Montréal","review_count":3,"name":"Jimmy Restaurant","neighborhoods":["Mercier-Hochelaga-Maisonneuve"],"longitude":-73.5489,"state":"QC","stars":3.5,"latitude":45.5508},{"business_id":"NPtqroQKbWg2oKl0kpn3kw","categories":["Chinese","Restaurants"],"city":"Montréal","review_count":7,"name":"Restaurant Szechuan","neighborhoods":["Ville-Marie"],"longitude":-73.559,"state":"QC","stars":4.5,"latitude":45.5014},{"business_id":"FTkaKbqXH7a-Zb10fSfuxw","categories":["French","Restaurants"],"city":"Montréal","review_count":96,"name":"Boris Bistro","neighborhoods":["Ville-Marie"],"longitude":-73.5587,"state":"QC","stars":4,"latitude":45.5008},{"business_id":"76VkIOkxRgM0-uSyTrChmg","categories":["Japanese","Restaurants"],"city":"Montréal","review_count":27,"name":"Komiko","neighborhoods":["Ville-Marie"],"longitude":-73.5595,"state":"QC","stars":2.5,"latitude":45.5133},{"business_id":"UyJoe_ImREU21OTk8QVMvg","categories":["Cafes","Restaurants"],"city":"Montréal","review_count":4,"name":"Shed Cafe","neighborhoods":["Plateau-Mont-Royal"],"longitude":-73.5712,"state":"QC","stars":4,"latitude":45.5134},{"business_id":"udhKyD5xhY3Tpes9ZeRpgA","categories":["Greek","Mediterranean","Restaurants"],"city":"Montréal","review_count":16,"name":"Arahova Souvlaki","neighborhoods":["Plateau-Mont-Royal"],"longitude":-73.6017,"state":"QC","stars":3.5,"latitude":45.5228},{"business_id":"k-ClRJsPYJtsI8NRtiLdTA","categories":["Fish & Chips","British","Restaurants"],"city":"Montréal","review_count":168,"name":"Brit & Chips","neighborhoods":["Ville-Marie"],"longitude":-73.5582,"state":"QC","stars":4,"latitude":45.5006},{"business_id":"g9TPol72x_9rmycL01MLnw","categories":["Bakeries","Food","Restaurants","Cafes","Italian"],"city":"Montréal","review_count":12,"name":"Farine","neighborhoods":["Plateau-Mont-Royal"],"longitude":-73.6,"state":"QC","stars":4.5,"latitude":45.5244},{"business_id":"QL2UWIX4EmMaY65PRyn--Q","categories":["Cafes","Restaurants"],"city":"Montréal","review_count":3,"name":"Café In","neighborhoods":["Rosemont-La Petite-Patrie"],"longitude":-73.6142,"state":"QC","stars":3,"latitude":45.536},{"business_id":"8WOfxUqX4qfHA0IKpNPrAQ","categories":["Peruvian","Restaurants"],"city":"Montréal","review_count":6,"name":"Casa Munayco","neighborhoods":["Villeray-Saint-Michel-Parc-Extension"],"longitude":-73.6174,"state":"QC","stars":4,"latitude":45.5427},{"business_id":"9NIHay196mpHRJ4gwqL0cg","categories":["Sushi Bars","Restaurants"],"city":"Montréal","review_count":3,"name":"Ichi Sushi","neighborhoods":["Ahunstic-Cartierville"],"longitude":-73.6593,"state":"QC","stars":4.5,"latitude":45.5582},{"business_id":"mbOZ9udokSbajtaMA42Dig","categories":["Indian","Sri Lankan","Restaurants"],"city":"Montréal","review_count":24,"name":"Jolee","neighborhoods":["Côte-des-Neiges"],"longitude":-73.6317,"state":"QC","stars":3.5,"latitude":45.4917},{"business_id":"t90dD3dEs-aiR4CvxCKhMg","categories":["Fast Food","Restaurants"],"city":"Montréal","review_count":5,"name":"Brochette","neighborhoods":["Ville-Marie"],"longitude":-73.5734,"state":"QC","stars":3,"latitude":45.4954},{"business_id":"E9Uleq1P0ZSILv2YUWW_JQ","categories":["Barbeque","Restaurants"],"city":"Montreal","review_count":28,"name":"Rotisserie St Hubert","neighborhoods":["Ville-Marie"],"longitude":-73.565,"state":"QC","stars":3,"latitude":45.5079},{"business_id":"Sqj-vPsoay73ixQvK0oDVA","categories":["Food","Breakfast & Brunch","Cafes","Coffee & Tea","Restaurants"],"city":"Montréal","review_count":18,"name":"Cafe Bistro Mon Plaisir","neighborhoods":["Ville-Marie"],"longitude":-73.5561,"state":"QC","stars":4.5,"latitude":45.5064},{"business_id":"J0EhoSLac4G5fh1P87PSiA","categories":["Burgers","Hot Dogs","Restaurants"],"city":"Montréal","review_count":3,"name":"La Québécoise","neighborhoods":["Mercier-Hochelaga-Maisonneuve"],"longitude":-73.545,"state":"QC","stars":2.5,"latitude":45.5443},{"business_id":"tBcmjM0Viq0souFulPpLQA","categories":["Restaurants","Italian"],"city":"Montréal","review_count":5,"name":"Amarone","neighborhoods":["Ville-Marie"],"longitude":-73.5659,"state":"QC","stars":4,"latitude":45.5161},{"business_id":"WX89Rq2O_ri18jao1Gl0yg","categories":["Cafes","Sandwiches","Restaurants"],"city":"Montreal","review_count":15,"name":"La Concession- Boutique + Comptoir Alimentaire","neighborhoods":["Ville-Marie"],"longitude":-73.5565,"state":"QC","stars":3.5,"latitude":45.5053},{"business_id":"1kyEOjhNcvHbeHtHKtwHyw","categories":["Breakfast & Brunch","Restaurants"],"city":"Montréal","review_count":26,"name":"Restaurant Dans La Bouche","neighborhoods":["Plateau-Mont-Royal"],"longitude":-73.573,"state":"QC","stars":3.5,"latitude":45.5346},{"business_id":"PE43CSUfHRyRNRQHcXwsGg","categories":["Pizza","Restaurants"],"city":"Montréal","review_count":6,"name":"Pizza Prima","neighborhoods":["Notre-Dame-de-Grâce"],"longitude":-73.6116,"state":"QC","stars":5,"latitude":45.473},{"business_id":"2cM1L2ngS5YLR_3APAaxfQ","categories":["Cafes","Canadian (New)","Restaurants"],"city":"Montréal","review_count":9,"name":"Cafe Imagination","neighborhoods":["Ville-Marie"],"longitude":-73.5732,"state":"QC","stars":4,"latitude":45.4961},{"business_id":"RtignREvzBJ1jA2n7oTSSw","categories":["Pizza","Restaurants"],"city":"Montréal","review_count":44,"name":"Bottega","neighborhoods":["Rosemont-La Petite-Patrie"],"longitude":-73.6113,"state":"QC","stars":3.5,"latitude":45.5327},{"business_id":"4WEmJlbeXH2lOTGln8O8AQ","categories":["Cafes","Sandwiches","Restaurants"],"city":"Montréal","review_count":19,"name":"1000 Grammes","neighborhoods":["Ville-Marie"],"longitude":-73.5539,"state":"QC","stars":3.5,"latitude":45.5212},{"business_id":"a1fldZ6mOoQd0Cyem0ioIw","categories":["Steakhouses","French","Restaurants"],"city":"Montréal","review_count":21,"name":"Steak Frites","neighborhoods":["Plateau-Mont-Royal"],"longitude":-73.5778,"state":"QC","stars":3.5,"latitude":45.5217},{"business_id":"L0PivXp0lm2ie93tEhDccg","categories":["Restaurants"],"city":"Montréal","review_count":4,"name":"Restaurant La Selva","neighborhoods":["Plateau-Mont-Royal"],"longitude":-73.5782,"state":"QC","stars":3.5,"latitude":45.5253},{"business_id":"I-liDpQevoAroSxB3H9fTw","categories":["Modern European","Restaurants"],"city":"Montréal","review_count":19,"name":"Scarlet Exclusive","neighborhoods":["Ville-Marie"],"longitude":-73.5548,"state":"QC","stars":3,"latitude":45.5037},{"business_id":"kvUyO_4QuiQo0NbY2Ws-ag","categories":["Restaurants","Italian"],"city":"Montréal","review_count":3,"name":"Chez Paesano","neighborhoods":["Ville-Marie"],"longitude":-73.5636,"state":"QC","stars":3.5,"latitude":45.5154},{"business_id":"JYXzpcoldQsZthTKXMTegQ","categories":["Burgers","Restaurants"],"city":"Montréal","review_count":33,"name":"Picks","neighborhoods":["Ville-Marie"],"longitude":-73.5805,"state":"QC","stars":4,"latitude":45.4929},{"business_id":"BWu9I3EgKcs4dAyDOjYiYg","categories":["African","Middle Eastern","Restaurants"],"city":"Montréal","review_count":7,"name":"Mille et Un Couscous","neighborhoods":["Ville-Marie"],"longitude":-73.5559,"state":"QC","stars":2,"latitude":45.5185},{"business_id":"4vOtRVg7yr_IyXzNAv6p1w","categories":["Greek","Restaurants"],"city":"Montréal","review_count":8,"name":"Restaurant Elatos Souvlaki","neighborhoods":["Villeray-Saint-Michel-Parc-Extension"],"longitude":-73.6354,"state":"QC","stars":5,"latitude":45.5316},{"business_id":"jq8oEtE2b7HyVAXsHkXSPA","categories":["Delis","Sandwiches","Restaurants"],"city":"Montréal","review_count":5,"name":"Quebec Delicatessen","neighborhoods":["Villeray-Saint-Michel-Parc-Extension"],"longitude":-73.628,"state":"QC","stars":3,"latitude":45.5441},{"business_id":"SmfbeU7Db0HZFNRECZFYCA","categories":["Peruvian","Restaurants"],"city":"Montréal","review_count":6,"name":"El 77","neighborhoods":["Plateau-Mont-Royal"],"longitude":-73.6031,"state":"QC","stars":4.5,"latitude":45.5266},{"business_id":"oaeLklvhUU0U1z2Ekmf59A","categories":["Portuguese","Restaurants"],"city":"Montréal","review_count":7,"name":"O Bico","neighborhoods":["Sud-Ouest"],"longitude":-73.5627,"state":"QC","stars":3.5,"latitude":45.4825},{"business_id":"61YLSb7jk5C0lvPuguvdXw","categories":["Seafood","Bars","Steakhouses","Nightlife","Restaurants"],"city":"Montréal","review_count":118,"name":"The Keg Steakhouse + Bar - Montreal","neighborhoods":["Ville-Marie"],"longitude":-73.5536,"state":"QC","stars":4,"latitude":45.506},{"business_id":"vacEw24u4ktbWZWvsLPeFg","categories":["Middle Eastern","Restaurants"],"city":"Montréal","review_count":5,"name":"Al Quds","neighborhoods":["Pierrefonds-Roxboro"],"longitude":-73.8028,"state":"QC","stars":3,"latitude":45.5096},{"business_id":"iDACe__Y9DpIl5GHLSFzwg","categories":["Fast Food","Restaurants"],"city":"Montréal","review_count":6,"name":"Poutine En Folie","neighborhoods":["Plateau-Mont-Royal"],"longitude":-73.5812,"state":"QC","stars":1.5,"latitude":45.5178},{"business_id":"xzb-QswUTcunPfPc56G-Jg","categories":["Restaurants"],"city":"Montréal","review_count":5,"name":"Frite Alors","neighborhoods":["Rosemont-La Petite-Patrie"],"longitude":-73.5742,"state":"QC","stars":3,"latitude":45.5499},{"business_id":"hFRk0nqz6UQHk1C_k_0xiw","categories":["Bakeries","Food","Breakfast & Brunch","Middle Eastern","Restaurants"],"city":"Montréal","review_count":56,"name":"Al-Baghdadi Pastry","neighborhoods":["Ville-Marie"],"longitude":-73.5805,"state":"QC","stars":4.5,"latitude":45.4958},{"business_id":"zpklQc_ZFmybXUYIm6w1Bg","categories":["Vietnamese","Restaurants"],"city":"Montréal","review_count":8,"name":"Restaurant Pho 21","neighborhoods":["Ville-Marie"],"longitude":-73.558,"state":"QC","stars":4.5,"latitude":45.5178},{"business_id":"4BcQ3U-hDzvSboZ4kkC6Kw","categories":["Bars","Breakfast & Brunch","Pubs","Comfort Food","Nightlife","Restaurants"],"city":"Montréal","review_count":13,"name":"Bulldog Beer House","neighborhoods":["Ville-Marie"],"longitude":-73.5539,"state":"QC","stars":4,"latitude":45.5054},{"business_id":"MPp91qicKlkhaDtmzNUeSQ","categories":["French","Restaurants"],"city":"Montréal","review_count":16,"name":"Restaurant Des Gouverneurs","neighborhoods":["Ville-Marie"],"longitude":-73.554,"state":"QC","stars":2,"latitude":45.5079},{"business_id":"46OnCyLtC6oY5ANrVn26xg","categories":["Indian","Restaurants"],"city":"Montréal","review_count":14,"name":"Bienvenue en Inde","neighborhoods":["Plateau-Mont-Royal"],"longitude":-73.586,"state":"QC","stars":3,"latitude":45.5255},{"business_id":"JaZXAfoAGDoFMC8jMSa4mA","categories":["Tapas Bars","Pizza","Restaurants"],"city":"Montréal","review_count":14,"name":"L'Artizan Biztro","neighborhoods":["Rosemont-La Petite-Patrie"],"longitude":-73.6019,"state":"QC","stars":4.5,"latitude":45.5356},{"business_id":"UTesNnnvWlUtxoK_etQt8A","categories":["Greek","Pizza","Restaurants"],"city":"Montréal","review_count":22,"name":"Terrasse Lafayette","neighborhoods":["Plateau-Mont-Royal"],"longitude":-73.5916,"state":"QC","stars":4,"latitude":45.5187},{"business_id":"YS_UqZPJ3ksPFoVK-1woWw","categories":["Canadian (New)","Restaurants"],"city":"Montréal","review_count":27,"name":"Restaurant La Prunelle","neighborhoods":["Plateau-Mont-Royal"],"longitude":-73.5765,"state":"QC","stars":3,"latitude":45.5202},{"business_id":"_sE20NftkRwtw1VUXM-QJA","categories":["Canadian (New)","Restaurants"],"city":"Montréal","review_count":131,"name":"L'Orignal","neighborhoods":["Ville-Marie"],"longitude":-73.5582,"state":"QC","stars":4,"latitude":45.5027},{"business_id":"URtEW6ohaqIZX47csgCPZA","categories":["Canadian (New)","Restaurants"],"city":"Montréal","review_count":15,"name":"Grenouille","neighborhoods":["Plateau-Mont-Royal"],"longitude":-73.5809,"state":"QC","stars":4,"latitude":45.5262},{"business_id":"Ef8XRx6dntxfFgYXP_S61A","categories":["Vegetarian","Asian Fusion","Middle Eastern","Restaurants"],"city":"Montréal","review_count":3,"name":"Le Billot","neighborhoods":["Plateau-Mont-Royal"],"longitude":-73.5754,"state":"QC","stars":3,"latitude":45.5214},{"business_id":"Rw9UfT92Ys2hfWFRDu_xNA","categories":["Burgers","Restaurants"],"city":"Montréal","review_count":116,"name":"m:brgr","neighborhoods":["Ville-Marie"],"longitude":-73.5763,"state":"QC","stars":3,"latitude":45.4998},{"business_id":"uETBXZTmQcH2SuzSdkwi8Q","categories":["Asian Fusion","Chinese","Restaurants"],"city":"Montréal","review_count":10,"name":"Trilogie","neighborhoods":["Villeray-Saint-Michel-Parc-Extension"],"longitude":-73.638,"state":"QC","stars":4,"latitude":45.541},{"business_id":"Bmw7NJ4A6ffjb5J_hBto3A","categories":["Creperies","Restaurants"],"city":"Montréal","review_count":5,"name":"Crêpanita du Marché","neighborhoods":["Ville-Marie"],"longitude":-73.5629,"state":"QC","stars":4,"latitude":45.5205},{"business_id":"crWYM-PrW5R9STQ6AsI-2Q","categories":["International","Bars","Nightlife","Restaurants"],"city":"Montréal","review_count":58,"name":"Saloon Bistro Bar","neighborhoods":["Ville-Marie"],"longitude":-73.555,"state":"QC","stars":3.5,"latitude":45.5199},{"business_id":"5Pgaus70eC1bJHSwzzjPng","categories":["French","Restaurants"],"city":"Montréal","review_count":3,"name":"Tablée Vin","neighborhoods":["Ville-Marie"],"longitude":-73.561,"state":"QC","stars":3.5,"latitude":45.5234},{"business_id":"rT7j4MF8alfiBypeUAHyvA","categories":["Diners","Restaurants"],"city":"Montréal","review_count":22,"name":"Momesso","neighborhoods":["Notre-Dame-de-Grâce"],"longitude":-73.608,"state":"QC","stars":4.5,"latitude":45.4698},{"business_id":"cHj7cwg1vTW9N0VkSxm5Ng","categories":["Soup","Vietnamese","Restaurants"],"city":"Montréal","review_count":15,"name":"Pho Maisonneuve","neighborhoods":["Ville-Marie"],"longitude":-73.5589,"state":"QC","stars":4,"latitude":45.5174},{"business_id":"WDBWTCD4hw-71XNJ5J9EMQ","categories":["Food","Coffee & Tea","Breakfast & Brunch","Restaurants"],"city":"Montréal","review_count":9,"name":"My Little Cup","neighborhoods":["Ville-Marie"],"longitude":-73.5718,"state":"QC","stars":4.5,"latitude":45.5044},{"business_id":"a_C29DaQinfCgowt8Qf-IQ","categories":["Vietnamese","Restaurants"],"city":"Montréal","review_count":5,"name":"Milani Restaurant","neighborhoods":["Plateau-Mont-Royal"],"longitude":-73.6049,"state":"QC","stars":2,"latitude":45.5246},{"business_id":"tj7ieGF-xGKV7Ub-jdZa6A","categories":["Mediterranean","Restaurants"],"city":"Montréal","review_count":11,"name":"Andiamo","neighborhoods":["Ville-Marie"],"longitude":-73.565,"state":"QC","stars":4,"latitude":45.5026},{"business_id":"ivm3ayyeXZotB1U96uoLaQ","categories":["Creperies","Cafes","Restaurants"],"city":"Montréal","review_count":25,"name":"La Bulle au Carré","neighborhoods":["Plateau-Mont-Royal"],"longitude":-73.5688,"state":"QC","stars":3.5,"latitude":45.5176},{"business_id":"AAnKvhzBX9XwoxveONLTsA","categories":["Thai","Vietnamese","Chinese","Restaurants"],"city":"Montréal","review_count":4,"name":"Nouilles du Chef","neighborhoods":["Ville-Marie"],"longitude":-73.58,"state":"QC","stars":1.5,"latitude":45.4937},{"business_id":"bGnjdrsfPrYsdATLjTViDA","categories":["Portuguese","Restaurants"],"city":"Montréal","review_count":105,"name":"Ma Poule Mouillée","neighborhoods":["Plateau-Mont-Royal"],"longitude":-73.5751,"state":"QC","stars":4.5,"latitude":45.5252},{"business_id":"Qge4R8L61c4_RGd8CPhekA","categories":["French","Canadian (New)","Restaurants"],"city":"Montréal","review_count":183,"name":"Le Robin Square","neighborhoods":["Ville-Marie"],"longitude":-73.5561,"state":"QC","stars":5,"latitude":45.5063},{"business_id":"Cqwc3vEwBfACCxmzwcwc5Q","categories":["Vietnamese","Restaurants"],"city":"Montréal","review_count":23,"name":"Pho Mymy","neighborhoods":["Ahunstic-Cartierville"],"longitude":-73.6602,"state":"QC","stars":4,"latitude":45.5341},{"business_id":"xeysfxV3Y9rWe_smQQBwnA","categories":["Portuguese","Restaurants"],"city":"Montréal","review_count":6,"name":"Le Roi Du Plateau","neighborhoods":["Plateau-Mont-Royal"],"longitude":-73.5824,"state":"QC","stars":5,"latitude":45.5175},{"business_id":"pKpxPqBnoeFaL9GkMn0xhQ","categories":["Chinese","Restaurants"],"city":"Montréal","review_count":23,"name":"Mon Nan","neighborhoods":["Ville-Marie"],"longitude":-73.5597,"state":"QC","stars":3.5,"latitude":45.5086},{"business_id":"znKRJ6CrJXlpsq1huRU-kA","categories":["Pizza","Restaurants"],"city":"Montréal","review_count":25,"name":"Pizzeria Geppetto","neighborhoods":["Sud-Ouest"],"longitude":-73.5753,"state":"QC","stars":3.5,"latitude":45.4827},{"business_id":"3LeVOCbIZLB730b1IiROJA","categories":["Thai","Vietnamese","Japanese","Restaurants"],"city":"Montréal","review_count":3,"name":"Restaurant Lune D'asie","neighborhoods":["Plateau-Mont-Royal"],"longitude":-73.5711,"state":"QC","stars":3,"latitude":45.5367},{"business_id":"zFdjvu_aHnEoqJ3u4JRXmg","categories":["Burgers","Hot Dogs","Restaurants"],"city":"Montréal","review_count":24,"name":"A.A.","neighborhoods":["Sud-Ouest"],"longitude":-73.5814,"state":"QC","stars":4,"latitude":45.4793},{"business_id":"rEOLxrWxlE0k6Sbtp5c8Rg","categories":["Bars","Vegetarian","Pubs","Burgers","Nightlife","Restaurants"],"city":"Montréal","review_count":14,"name":"Le Barbare","neighborhoods":["Plateau-Mont-Royal"],"longitude":-73.5854,"state":"QC","stars":3,"latitude":45.5249},{"business_id":"aan06scnl68tct7oHeWRMQ","categories":["Cafes","Restaurants"],"city":"Montréal","review_count":6,"name":"Kokkino Cafe","neighborhoods":["Notre-Dame-de-Grâce"],"longitude":-73.6154,"state":"QC","stars":3.5,"latitude":45.471},{"business_id":"Q3I0M5GsLn0EiNRL8lI8_Q","categories":["French","Restaurants"],"city":"Montréal","review_count":6,"name":"L'Arrivage","neighborhoods":["Ville-Marie"],"longitude":-73.5541,"state":"QC","stars":4,"latitude":45.5026},{"business_id":"IWiRDo5OJzbvJG2vpfspjg","categories":["Sushi Bars","Japanese","Restaurants"],"city":"Montréal","review_count":18,"name":"K2 Bistro","neighborhoods":["Ville-Marie"],"longitude":-73.5773,"state":"QC","stars":3,"latitude":45.4977},{"business_id":"zrd2LbYSvBIAivyicaDZjw","categories":["Latin American","Mexican","Restaurants"],"city":"Montréal","review_count":23,"name":"El Zaziummm","neighborhoods":["Plateau-Mont-Royal"],"longitude":-73.5843,"state":"QC","stars":2.5,"latitude":45.5327},{"business_id":"C1qFJ4kTySG5PtfJAqrA-w","categories":["Bakeries","Food","French","Restaurants"],"city":"Montréal","review_count":7,"name":"Boulangerie Premiere Moisson","neighborhoods":["Notre-Dame-de-Grâce"],"longitude":-73.6214,"state":"QC","stars":4,"latitude":45.4765},{"business_id":"H-aFeDAbu-dDojoskjIswA","categories":["Pizza","Restaurants"],"city":"Montréal","review_count":14,"name":"Pizza Pinoli","neighborhoods":["Notre-Dame-de-Grâce"],"longitude":-73.6219,"state":"QC","stars":3,"latitude":45.4764},{"business_id":"MegAhl7ZS2s2J1DT7mNXxw","categories":["Bars","Burgers","Nightlife","Sports Bars","Barbeque","Restaurants"],"city":"Montréal","review_count":78,"name":"La Station des Sports","neighborhoods":["Ville-Marie"],"longitude":-73.5818,"state":"QC","stars":2.5,"latitude":45.4919},{"business_id":"jS1sgQNnGuIoirgxLnT68A","categories":["Greek","Restaurants"],"city":"Montréal","review_count":10,"name":"Ouzeri","neighborhoods":["Plateau-Mont-Royal"],"longitude":-73.5855,"state":"QC","stars":4,"latitude":45.525},{"business_id":"QbWjrrKrWVk9ofq-OFYfmg","categories":["Sushi Bars","Restaurants"],"city":"Montréal","review_count":4,"name":"Sushi Rosemont","neighborhoods":["Plateau-Mont-Royal"],"longitude":-73.5971,"state":"QC","stars":4.5,"latitude":45.5324},{"business_id":"cP_jZtX5gPEQOM2DnimJzA","categories":["Indian","Restaurants"],"city":"Montréal","review_count":4,"name":"Le Rajput Authentic Fusion Indian","neighborhoods":["Plateau-Mont-Royal"],"longitude":-73.5721,"state":"QC","stars":2.5,"latitude":45.5143},{"business_id":"iqhMRVwfB7TJY7YxEILLwA","categories":["Food","Ice Cream & Frozen Yogurt","Sandwiches","Soup","Restaurants"],"city":"Montréal","review_count":7,"name":"Xavier Artisan","neighborhoods":["Ville-Marie"],"longitude":-73.5547,"state":"QC","stars":4.5,"latitude":45.5025},{"business_id":"rVYgfIGN4XMty8kvdTY7GA","categories":["Burgers","Fast Food","Restaurants"],"city":"Montréal","review_count":11,"name":"McDonald's","neighborhoods":["Ville-Marie"],"longitude":-73.5694,"state":"QC","stars":1.5,"latitude":45.5033},{"business_id":"rWmYk-i8EF-g07KnVkdlqQ","categories":["Adult Entertainment","Breakfast & Brunch","Nightlife","Restaurants"],"city":"Montréal","review_count":11,"name":"Restaurant Les Princesses","neighborhoods":["Mercier-Hochelaga-Maisonneuve"],"longitude":-73.5421,"state":"QC","stars":2.5,"latitude":45.5617},{"business_id":"XZwfnxbL06zFuKQ8o2JbQA","categories":["Pubs","Bars","Nightlife","Irish","Restaurants"],"city":"Montréal","review_count":3,"name":"O'Regans Irish Pub","neighborhoods":["Ville-Marie"],"longitude":-73.5754,"state":"QC","stars":4.5,"latitude":45.496},{"business_id":"UXBZ52hk0O3Tqeg5q9rluA","categories":["Caribbean","Sandwiches","Restaurants"],"city":"Montréal","review_count":14,"name":"Jardin du Cari","neighborhoods":["Plateau-Mont-Royal"],"longitude":-73.5991,"state":"QC","stars":4.5,"latitude":45.5259},{"business_id":"PsWHs2TLIjeTuMlZkZBwyA","categories":["Chinese","Restaurants"],"city":"Montréal","review_count":3,"name":"Restaurant FamiLi","neighborhoods":["Villeray-Saint-Michel-Parc-Extension"],"longitude":-73.6142,"state":"QC","stars":2,"latitude":45.5413},{"business_id":"NjHwPn2d3TL_xxnheXoSmw","categories":["Pubs","Irish","Nightlife","Bars","Restaurants"],"city":"Montréal","review_count":35,"name":"Ye Olde Orchard Pub & Grill","neighborhoods":["Plateau-Mont-Royal"],"longitude":-73.5729,"state":"QC","stars":4,"latitude":45.5135},{"business_id":"-gs5KEyNSERuoG61oPEQrQ","categories":["Delis","Sandwiches","Restaurants"],"city":"Montréal","review_count":13,"name":"Deli Planet","neighborhoods":["Ville-Marie"],"longitude":-73.5665,"state":"QC","stars":3,"latitude":45.4999},{"business_id":"K5wItC0mKA-Yasla9tjkog","categories":["Vietnamese","Restaurants"],"city":"Montréal","review_count":5,"name":"Restaurant Zone D'asie","neighborhoods":["Villeray-Saint-Michel-Parc-Extension"],"longitude":-73.6047,"state":"QC","stars":4,"latitude":45.5503},{"business_id":"7wH6fGNgkWgqRdTVPGUEHg","categories":["Thai","Restaurants"],"city":"Montréal","review_count":3,"name":"Thaïzone","neighborhoods":["Mercier-Hochelaga-Maisonneuve"],"longitude":-73.5459,"state":"QC","stars":1,"latitude":45.5775},{"business_id":"vDr8MMpZoJtiS2L05oEcFA","categories":["Seafood","Restaurants"],"city":"Montréal","review_count":20,"name":"Oyster Shack","neighborhoods":["Ville-Marie"],"longitude":-73.5757,"state":"QC","stars":3,"latitude":45.4961},{"business_id":"6g28TEvEJi_w2vZFxpJ_Pg","categories":["Cheese Shops","Food","Specialty Food","Delis","Sandwiches","Restaurants"],"city":"Montréal","review_count":4,"name":"Stecchino","neighborhoods":["Ville-Marie"],"longitude":-73.5704,"state":"QC","stars":3,"latitude":45.5},{"business_id":"HYcO2FLgOOCbZ10s3i3bjQ","categories":["Food","Burgers","Juice Bars & Smoothies","Vegan","Restaurants"],"city":"Montréal","review_count":13,"name":"Café Nutri Mania","neighborhoods":["Plateau-Mont-Royal"],"longitude":-73.5813,"state":"QC","stars":3.5,"latitude":45.5184},{"business_id":"jpc_wN3lxwDeeB4usJ7uRg","categories":["Bakeries","Food","Cafes","Restaurants"],"city":"Montréal","review_count":6,"name":"Plougastel","neighborhoods":["Rosemont-La Petite-Patrie"],"longitude":-73.6092,"state":"QC","stars":3.5,"latitude":45.5305},{"business_id":"kGV9YXARprY04yacOljFIw","categories":["Creperies","Restaurants"],"city":"Montréal","review_count":33,"name":"Spanel","neighborhoods":["Sud-Ouest"],"longitude":-73.5695,"state":"QC","stars":4.5,"latitude":45.4867},{"business_id":"9jQErGYcc6iWHhjg2zIU8Q","categories":["Restaurants","Italian"],"city":"Montréal","review_count":19,"name":"Trattoria Piatto Pieno","neighborhoods":["Rosemont-La Petite-Patrie"],"longitude":-73.6108,"state":"QC","stars":2.5,"latitude":45.5334},{"business_id":"_3sNofnObV-N80chxyRvmg","categories":["Thai","Vietnamese","Restaurants"],"city":"Montréal","review_count":10,"name":"Bouddha Bouddha Restaurant","neighborhoods":["Plateau-Mont-Royal"],"longitude":-73.5745,"state":"QC","stars":3,"latitude":45.5147},{"business_id":"-agh_pVxtZTaODE-3NAotg","categories":["Restaurants","Italian"],"city":"Montréal","review_count":17,"name":"Bis Restaurant","neighborhoods":["Ville-Marie"],"longitude":-73.5743,"state":"QC","stars":4,"latitude":45.4977},{"business_id":"WTITH1OJsf7hU0UYomH_Qw","categories":["Greek","Fast Food","Restaurants"],"city":"Montréal","review_count":12,"name":"La Ligne Rouge","neighborhoods":["Rosemont-La Petite-Patrie"],"longitude":-73.6142,"state":"QC","stars":3.5,"latitude":45.5385},{"business_id":"ooa_e8Sg04wk6YdYTao_ow","categories":["Mexican","Restaurants"],"city":"Montréal","review_count":19,"name":"Don Taco","neighborhoods":["Ville-Marie"],"longitude":-73.5801,"state":"QC","stars":4,"latitude":45.4931},{"business_id":"pMREe67NEipMdioVAeAAOw","categories":["Chinese","Restaurants"],"city":"Montréal","review_count":3,"name":"CheZ Chine","neighborhoods":["Ville-Marie"],"longitude":-73.5601,"state":"QC","stars":3,"latitude":45.5067},{"business_id":"uci0TdR22z8LfPxf00twqw","categories":["Breakfast & Brunch","Restaurants","Italian"],"city":"Montréal","review_count":3,"name":"Caffè Della Posta","neighborhoods":["Plateau-Mont-Royal"],"longitude":-73.6059,"state":"QC","stars":3.5,"latitude":45.5235},{"business_id":"0X9e90_Bn1GS0nlF1Icu2w","categories":["Sushi Bars","Restaurants"],"city":"Montréal","review_count":6,"name":"Bonsa Sushi","neighborhoods":["Plateau-Mont-Royal"],"longitude":-73.5862,"state":"QC","stars":3.5,"latitude":45.5253},{"business_id":"ZHPT2vwxObASPjo3mi11ow","categories":["Cafes","Event Planning & Services","Venues & Event Spaces","Restaurants"],"city":"Montréal","review_count":11,"name":"Café l'Artère","neighborhoods":["Villeray-Saint-Michel-Parc-Extension"],"longitude":-73.6203,"state":"QC","stars":3.5,"latitude":45.5295},{"business_id":"dI2cE7lpfZgLYx5NkX50wA","categories":["Restaurants","Italian"],"city":"Montréal","review_count":8,"name":"Vinizza","neighborhoods":["Rosemont-La Petite-Patrie"],"longitude":-73.6167,"state":"QC","stars":4.5,"latitude":45.5357},{"business_id":"u-KXKmItHtzNJOinNl3arA","categories":["Breakfast & Brunch","Restaurants"],"city":"Montréal","review_count":3,"name":"Extra Œufs","neighborhoods":["Rosemont-La Petite-Patrie"],"longitude":-73.6034,"state":"QC","stars":4,"latitude":45.5463},{"business_id":"E9IDR5S1JT4LUjN2VLp4Bw","categories":["Pakistani","Bars","Indian","Nightlife","Restaurants"],"city":"Montréal","review_count":6,"name":"Peg N Tikka","neighborhoods":["Plateau-Mont-Royal","Ville-Marie"],"longitude":-73.5693,"state":"QC","stars":4.5,"latitude":45.5126},{"business_id":"qFL5lY8_Tua2e8LMnd9IRA","categories":["Cafes","Restaurants"],"city":"Montréal","review_count":12,"name":"Bobby McGee","neighborhoods":["Mercier-Hochelaga-Maisonneuve"],"longitude":-73.5471,"state":"QC","stars":4,"latitude":45.5412},{"business_id":"r1wVUmJdEwqEe7P5u2e4TA","categories":["Breakfast & Brunch","Restaurants"],"city":"Montréal","review_count":6,"name":"Chez Cora","neighborhoods":["Plateau-Mont-Royal"],"longitude":-73.5765,"state":"QC","stars":2.5,"latitude":45.5307},{"business_id":"4UMh0bNJm-DSPMG48jGytA","categories":["Japanese","Canadian (New)","Restaurants"],"city":"Montréal","review_count":10,"name":"Restaurant Ginger","neighborhoods":["Plateau-Mont-Royal"],"longitude":-73.5748,"state":"QC","stars":4.5,"latitude":45.5153},{"business_id":"ZFZ5A7zc0v53GgrsjiVphw","categories":["Middle Eastern","Restaurants"],"city":"Montréal","review_count":4,"name":"Basha Restaurant","neighborhoods":["Ville-Marie"],"longitude":-73.559,"state":"QC","stars":2,"latitude":45.505},{"business_id":"xSPyyqRWx8r4UhSymexgLw","categories":["Restaurants","Italian"],"city":"Montréal","review_count":12,"name":"Restaurant Tre Marie","neighborhoods":["Rosemont-La Petite-Patrie"],"longitude":-73.6159,"state":"QC","stars":4.5,"latitude":45.5326},{"business_id":"vuwygMba_Mz6zQ8U3Oyn-w","categories":["Cheese Shops","Food","Specialty Food","Delis","Sandwiches","Restaurants"],"city":"Montréal","review_count":4,"name":"Les Fromages de Choix","neighborhoods":["Rosemont-La Petite-Patrie"],"longitude":-73.5946,"state":"QC","stars":4,"latitude":45.5457},{"business_id":"yrWYiA_CXEeCBmlV4ZiLvQ","categories":["Italian","Pizza","Restaurants"],"city":"Montréal","review_count":34,"name":"Enoteca Mozza","neighborhoods":["Ville-Marie"],"longitude":-73.5704,"state":"QC","stars":3,"latitude":45.5019},{"business_id":"0RsYRnk0z2Y_GbK7fB9nLQ","categories":["Breakfast & Brunch","French","Restaurants"],"city":"Montréal","review_count":8,"name":"Cabotins","neighborhoods":["Mercier-Hochelaga-Maisonneuve"],"longitude":-73.5308,"state":"QC","stars":4,"latitude":45.5561},{"business_id":"6VALdQdtPcwU0mCbg3Yx6g","categories":["Sushi Bars","Restaurants"],"city":"Montréal","review_count":10,"name":"Ichi Sushi","neighborhoods":["Plateau-Mont-Royal"],"longitude":-73.5862,"state":"QC","stars":4,"latitude":45.5205},{"business_id":"mq-jKj0SM2mvvXtdzL4tjw","categories":["Restaurants","Italian"],"city":"Montréal","review_count":10,"name":"Restaurant La Medusa","neighborhoods":["Ville-Marie"],"longitude":-73.5732,"state":"QC","stars":3.5,"latitude":45.4979},{"business_id":"eZYlXKdQofwynt5tDcVqdQ","categories":["Food","Bakeries","Coffee & Tea","Pizza","Restaurants"],"city":"Montréal","review_count":15,"name":"San Gennaro","neighborhoods":["Rosemont-La Petite-Patrie"],"longitude":-73.6112,"state":"QC","stars":4.5,"latitude":45.5328},{"business_id":"r1ixD4lkU7yT5107LeZ2ng","categories":["Pizza","Restaurants"],"city":"Montréal","review_count":5,"name":"La Frita Pizzeria","neighborhoods":["Sud-Ouest"],"longitude":-73.5906,"state":"QC","stars":4,"latitude":45.4709},{"business_id":"3-wjIKCaFP1vt_SllQz-8Q","categories":["French","Restaurants"],"city":"Montréal","review_count":5,"name":"Café Croissant De Lune","neighborhoods":["Ville-Marie"],"longitude":-73.5649,"state":"QC","stars":3,"latitude":45.5159},{"business_id":"Mda35TZ2MZCKZbx6dD_UAg","categories":["Food","Bakeries","Coffee & Tea","Sandwiches","Restaurants"],"city":"Montréal","review_count":5,"name":"Le Brûloir","neighborhoods":["Ahunstic-Cartierville"],"longitude":-73.6677,"state":"QC","stars":4,"latitude":45.5437},{"business_id":"ro4Y_MqR6YE6ejFr0XGC6w","categories":["Japanese","Restaurants"],"city":"Montréal","review_count":27,"name":"Izakaya Kabocha","neighborhoods":["Plateau-Mont-Royal"],"longitude":-73.5731,"state":"QC","stars":4,"latitude":45.5143},{"business_id":"g_QywoAtFtZPMdgqfUIC4A","categories":["Pizza","Restaurants"],"city":"Montréal","review_count":21,"name":"Adamo","neighborhoods":["Sud-Ouest"],"longitude":-73.5883,"state":"QC","stars":3.5,"latitude":45.4734},{"business_id":"vDWVlFWy7UQk7v6On8Inwg","categories":["American (Traditional)","Steakhouses","Canadian (New)","Restaurants"],"city":"Montréal","review_count":29,"name":"Steak Frite St-Paul Village","neighborhoods":["Ville-Marie"],"longitude":-73.5554,"state":"QC","stars":3,"latitude":45.5193},{"business_id":"lOftRK9D9VMXQDq1ljBgsg","categories":["Seafood","Restaurants"],"city":"Montréal","review_count":9,"name":"NÜVÜ","neighborhoods":["Ville-Marie"],"longitude":-73.5549,"state":"QC","stars":3,"latitude":45.5197},{"business_id":"snEM2cSKyYtdfWdc7v1M6A","categories":["Japanese","Restaurants"],"city":"Montréal","review_count":15,"name":"Sumi Dojo","neighborhoods":["Plateau-Mont-Royal"],"longitude":-73.5706,"state":"QC","stars":3,"latitude":45.5132},{"business_id":"i7KztjtUKNS7rK5AQi-i7g","categories":["Brasseries","Breakfast & Brunch","French","Restaurants"],"city":"Montréal","review_count":11,"name":"Bistro l'Évidence","neighborhoods":["Plateau-Mont-Royal"],"longitude":-73.5729,"state":"QC","stars":4,"latitude":45.5196},{"business_id":"b6N1f3rTZUbUom70SO55JQ","categories":["Restaurants","African"],"city":"Montréal","review_count":13,"name":"Gracia Afrika","neighborhoods":["Sud-Ouest"],"longitude":-73.5796,"state":"QC","stars":4.5,"latitude":45.4803},{"business_id":"YK27PPQ51ugDqt9zNLnX7A","categories":["Bakeries","Food","Cafes","Restaurants"],"city":"Montréal","review_count":4,"name":"Vasconia Boulangerie","neighborhoods":["Plateau-Mont-Royal"],"longitude":-73.5857,"state":"QC","stars":2.5,"latitude":45.5251},{"business_id":"lPgwznPyAehZ0qbY8vFIWg","categories":["Restaurants","Italian"],"city":"Montréal","review_count":11,"name":"Restaurant Galianos","neighborhoods":["Ville-Marie"],"longitude":-73.5535,"state":"QC","stars":3.5,"latitude":45.5073},{"business_id":"7URknxlR46SUaFVqB-6w4A","categories":["Burgers","American (Traditional)","Fast Food","Restaurants"],"city":"Montréal","review_count":3,"name":"Harvey's Restaurants","neighborhoods":["Ahunstic-Cartierville"],"longitude":-73.6446,"state":"QC","stars":3.5,"latitude":45.5377},{"business_id":"zXHgDLxXHIqdkErZee0Utg","categories":["Indian","Restaurants"],"city":"Montréal","review_count":22,"name":"Maison India","neighborhoods":["Notre-Dame-de-Grâce"],"longitude":-73.6181,"state":"QC","stars":4,"latitude":45.4691},{"business_id":"Bv3WXhtRydDdG1nhbkCBEA","categories":["Breakfast & Brunch","Hot Dogs","Pizza","Restaurants"],"city":"Montréal","review_count":21,"name":"Lafayette","neighborhoods":["Ville-Marie"],"longitude":-73.5516,"state":"QC","stars":4,"latitude":45.5233},{"business_id":"-hngirYFvhMnn97FsT4a1g","categories":["Canadian (New)","Restaurants"],"city":"Montréal","review_count":4,"name":"Les Moulins Lafayette","neighborhoods":["Plateau-Mont-Royal"],"longitude":-73.5763,"state":"QC","stars":3,"latitude":45.5314},{"business_id":"ENMWrZcSX2H2y-DhpA9QSQ","categories":["Chicken Wings","Restaurants"],"city":"Montréal","review_count":3,"name":"Ad's Buffalo Wings","neighborhoods":["Saint-Laurent"],"longitude":-73.6791,"state":"QC","stars":3.5,"latitude":45.512},{"business_id":"wzEXA_LIK84g2K7wWShVRw","categories":["Belgian","Canadian (New)","Restaurants"],"city":"Montréal","review_count":10,"name":"Frite Alors!","neighborhoods":["Villeray-Saint-Michel-Parc-Extension"],"longitude":-73.6244,"state":"QC","stars":4,"latitude":45.5387},{"business_id":"6sLVCfUKLxXeLBn9b0qomg","categories":["Pizza","Moroccan","Canadian (New)","Restaurants"],"city":"Montréal","review_count":5,"name":"Restaurant Au-Tarot","neighborhoods":[],"longitude":-73.5962,"state":"QC","stars":4,"latitude":45.5337},{"business_id":"pTg5vc5RuY3SKWQX_NB6ew","categories":["Food","Sandwiches","Convenience Stores","Breakfast & Brunch","Restaurants"],"city":"Montréal","review_count":58,"name":"Dépanneur le Pick-Up","neighborhoods":["Rosemont-La Petite-Patrie"],"longitude":-73.6177,"state":"QC","stars":4.5,"latitude":45.5318},{"business_id":"H30ZFQRUFMP_IyPHAS5-yg","categories":["Cafes","Restaurants"],"city":"Montréal","review_count":28,"name":"Birks Café par Europea","neighborhoods":["Ville-Marie"],"longitude":-73.5688,"state":"QC","stars":4,"latitude":45.5042},{"business_id":"YFTE4tt_B4LcpAxtfxgboQ","categories":["Cafes","Sandwiches","Restaurants"],"city":"Montréal","review_count":4,"name":"Frais Cafe & Sandwiches","neighborhoods":["Ville-Marie"],"longitude":-73.5651,"state":"QC","stars":4.5,"latitude":45.5027},{"business_id":"8cH4KTScAtuHtQj9_gLxNg","categories":["Portuguese","Seafood","Restaurants"],"city":"Montréal","review_count":140,"name":"Ferreira Café","neighborhoods":["Ville-Marie"],"longitude":-73.5742,"state":"QC","stars":4,"latitude":45.5003},{"business_id":"DoKUOUwAsWrlRY6ehzQV_w","categories":["French","Restaurants"],"city":"Montréal","review_count":109,"name":"Brasserie t","neighborhoods":["Ville-Marie"],"longitude":-73.5668,"state":"QC","stars":3.5,"latitude":45.5076},{"business_id":"__Y2jjdCFHvq3rzSbpDBlw","categories":["Cafes","Restaurants"],"city":"Montréal","review_count":20,"name":"Café Crèpe","neighborhoods":["Ville-Marie"],"longitude":-73.5673,"state":"QC","stars":4,"latitude":45.5058},{"business_id":"jtida285PmtDmcHaME5NsQ","categories":["Sandwiches","Restaurants"],"city":"Montréal","review_count":7,"name":"Paninneria da Marco","neighborhoods":["Saint-Léonard"],"longitude":-73.5946,"state":"QC","stars":4.5,"latitude":45.6001},{"business_id":"-587aHcWTqF_OgPxEqHl5A","categories":["Barbeque","Restaurants"],"city":"Montréal","review_count":6,"name":"Dunn'ss Famous","neighborhoods":["Ahunstic-Cartierville"],"longitude":-73.6593,"state":"QC","stars":2,"latitude":45.5347},{"business_id":"Fe1GEO_gbphVDRp7Yr2S0Q","categories":["Cafes","Restaurants"],"city":"Montréal","review_count":6,"name":"Second Cup","neighborhoods":["Ville-Marie"],"longitude":-73.5548,"state":"QC","stars":4.5,"latitude":45.5202},{"business_id":"SLFnRV-PwHziyAZWdWj_FQ","categories":["Caribbean","Haitian","Restaurants"],"city":"Montréal","review_count":3,"name":"Ange Ricky","neighborhoods":["Villeray-Saint-Michel-Parc-Extension"],"longitude":-73.6305,"state":"QC","stars":4,"latitude":45.5407},{"business_id":"gmOSEPiMUdh7Xwz_piyhYg","categories":["Delis","Sandwiches","Restaurants"],"city":"Montréal","review_count":3,"name":"Tim Hortons","neighborhoods":["Notre-Dame-de-Grâce"],"longitude":-73.6088,"state":"QC","stars":1.5,"latitude":45.474},{"business_id":"27eR2PYFPqrJyVWtWWGZ6Q","categories":["Breakfast & Brunch","Sandwiches","Restaurants"],"city":"Montréal","review_count":15,"name":"Bazar Café","neighborhoods":["Rosemont-La Petite-Patrie"],"longitude":-73.6061,"state":"QC","stars":4.5,"latitude":45.5327},{"business_id":"xrPzf2fsktXjpOh1UgynbQ","categories":["Sushi Bars","Japanese","Restaurants"],"city":"Montreal","review_count":13,"name":"Atami","neighborhoods":["Côte-des-Neiges"],"longitude":-73.6244,"state":"QC","stars":4,"latitude":45.4974},{"business_id":"bFWGhsKUgc6PF9uSqJbkeA","categories":["Chicken Shop","Chicken Wings","Restaurants"],"city":"Montréal","review_count":13,"name":"Rôtisserie St-Hubert","neighborhoods":["Côte-des-Neiges"],"longitude":-73.621,"state":"QC","stars":4,"latitude":45.4961},{"business_id":"7z6y1xm-8UNo35YoDFnpHQ","categories":["Burgers","Restaurants"],"city":"Montréal","review_count":12,"name":"Restaurant Copoli","neighborhoods":["Notre-Dame-de-Grâce"],"longitude":-73.6045,"state":"QC","stars":2.5,"latitude":45.4739},{"business_id":"91x1Z36dWuSEjdIdGY6xFw","categories":["Restaurants"],"city":"Montréal","review_count":10,"name":"Pizzadelic","neighborhoods":["Notre-Dame-de-Grâce"],"longitude":-73.6224,"state":"QC","stars":3,"latitude":45.4761},{"business_id":"jrxDo0nOyyqgfaxUsQAhAg","categories":["Scandinavian","Cafes","Restaurants"],"city":"Montréal","review_count":19,"name":"Ellefsen Café Scandinave","neighborhoods":["Rosemont-La Petite-Patrie"],"longitude":-73.6081,"state":"QC","stars":3.5,"latitude":45.5358},{"business_id":"Dbdj-Y3uBydiQUqpaqgSmA","categories":["Burgers","Breakfast & Brunch","Pizza","Restaurants"],"city":"Montréal","review_count":94,"name":"Universel","neighborhoods":["Plateau-Mont-Royal"],"longitude":-73.57,"state":"QC","stars":4,"latitude":45.5179},{"business_id":"Dfi39v93A9gNLH8m8S16kw","categories":["Modern European","Fondue","French","Restaurants"],"city":"Montréal","review_count":23,"name":"Restaurant La Raclette","neighborhoods":["Plateau-Mont-Royal"],"longitude":-73.5828,"state":"QC","stars":4.5,"latitude":45.5296},{"business_id":"gWR3yYh0i7oZWgZL9ARIHA","categories":["Sushi Bars","Japanese","Restaurants"],"city":"Montréal","review_count":36,"name":"Kuu Bistro","neighborhoods":["Ville-Marie"],"longitude":-73.5681,"state":"QC","stars":3,"latitude":45.504},{"business_id":"eS1ueKiutSsiCCqDa7e-gQ","categories":["Seafood","Restaurants"],"city":"Montréal","review_count":34,"name":"Restaurant Rayan","neighborhoods":["Côte-des-Neiges"],"longitude":-73.6315,"state":"QC","stars":3.5,"latitude":45.5003},{"business_id":"srwalcP-syowcxUNbSkA_g","categories":["Pizza","Restaurants"],"city":"Montréal","review_count":22,"name":"Pendeli's Pizza","neighborhoods":["Notre-Dame-de-Grâce"],"longitude":-73.629,"state":"QC","stars":4,"latitude":45.4786},{"business_id":"BT-lB8mSmtW1bgos0hZcOg","categories":["Restaurants","Turkish"],"city":"Montréal","review_count":7,"name":"Restaurant Kebab Express","neighborhoods":["Côte-des-Neiges"],"longitude":-73.6253,"state":"QC","stars":2,"latitude":45.4977},{"business_id":"AQ3sDL9j7AaQnxPlZXQk1w","categories":["Sandwiches","Fast Food","Halal","Restaurants"],"city":"Montréal","review_count":3,"name":"Le Parisien Sandwicherie","neighborhoods":["Ville-Marie"],"longitude":-73.5621,"state":"QC","stars":4.5,"latitude":45.5121},{"business_id":"YwrvDExXXp6KFbIrdnECcg","categories":["German","Fondue","Restaurants"],"city":"Montréal","review_count":50,"name":"Alpenhaus","neighborhoods":["Ville-Marie"],"longitude":-73.5799,"state":"QC","stars":3.5,"latitude":45.4927},{"business_id":"huU5CDEwu-GdWTzbiDZWwg","categories":["Fast Food","Restaurants"],"city":"Montréal","review_count":5,"name":"Restaurant La Belle Province","neighborhoods":["Ville-Marie"],"longitude":-73.5571,"state":"QC","stars":3.5,"latitude":45.5173},{"business_id":"3ytXCIYg6EN11k1dPBjFoA","categories":["Greek","Seafood","Restaurants"],"city":"Montréal","review_count":7,"name":"Namos","neighborhoods":["Plateau-Mont-Royal"],"longitude":-73.6049,"state":"QC","stars":4,"latitude":45.5244},{"business_id":"vwpc-fR8Dr3bjk9S_IjMxw","categories":["Moroccan","Restaurants"],"city":"Montréal","review_count":6,"name":"Salon Mogador","neighborhoods":["Rosemont-La Petite-Patrie"],"longitude":-73.6057,"state":"QC","stars":4,"latitude":45.5329},{"business_id":"H469FEznfNRhUw9Uk7_d9w","categories":["Persian/Iranian","Restaurants"],"city":"Montréal","review_count":12,"name":"Honi Rose","neighborhoods":["Ville-Marie"],"longitude":-73.5732,"state":"QC","stars":3.5,"latitude":45.4981},{"business_id":"kybdaRPgQnoFjyDBQwE9qA","categories":["Brasseries","Delis","Restaurants"],"city":"Montréal","review_count":15,"name":"Brisket Montreal","neighborhoods":["Ville-Marie"],"longitude":-73.5652,"state":"QC","stars":3,"latitude":45.5027},{"business_id":"C086Yzat_a5xYPE9KN8YCw","categories":["Korean","Restaurants"],"city":"Montréal","review_count":21,"name":"La Maison du Seoul","neighborhoods":["Notre-Dame-de-Grâce"],"longitude":-73.6059,"state":"QC","stars":4,"latitude":45.4766},{"business_id":"xW9iAfX3WYrO9OHfC3RL3Q","categories":["Burgers","Hot Dogs","Restaurants"],"city":"Montréal","review_count":19,"name":"Dilallo Burger Original 1929","neighborhoods":["Sud-Ouest"],"longitude":-73.5983,"state":"QC","stars":4,"latitude":45.4504},{"business_id":"ku84NWBpnfgkfpIoQJmknQ","categories":["Food","Juice Bars & Smoothies","French","Restaurants"],"city":"Montréal","review_count":3,"name":"Jus Jugo Juice","neighborhoods":["Ville-Marie"],"longitude":-73.5664,"state":"QC","stars":4.5,"latitude":45.4982},{"business_id":"_9_K2oblGMnTVKPdYfAJHA","categories":["Delis","Pizza","Breakfast & Brunch","Restaurants"],"city":"Montréal","review_count":4,"name":"Beaubien Deli","neighborhoods":["Rosemont-La Petite-Patrie"],"longitude":-73.5803,"state":"QC","stars":4,"latitude":45.5621},{"business_id":"wCw2ZjIuUk_G8eMXMN0rrw","categories":["Burgers","American (Traditional)","Restaurants"],"city":"Montréal","review_count":194,"name":"Burger Bar Crescent","neighborhoods":["Ville-Marie"],"longitude":-73.5771,"state":"QC","stars":4,"latitude":45.4981},{"business_id":"fXcOhb8asZwOh_CWVop1Mg","categories":["Latin American","Restaurants"],"city":"Montréal","review_count":9,"name":"La Chilenita","neighborhoods":["Plateau-Mont-Royal"],"longitude":-73.5748,"state":"QC","stars":4,"latitude":45.5168},{"business_id":"hYBXS7CsQYFofLfTDT2ZLg","categories":["Restaurants","Italian"],"city":"Montréal","review_count":5,"name":"Wood35 Restaurant Bar","neighborhoods":["Plateau-Mont-Royal"],"longitude":-73.5708,"state":"QC","stars":3,"latitude":45.513},{"business_id":"6YOt3oEGtn1Jzhh3PR7x8w","categories":["Cafes","Restaurants"],"city":"Montréal","review_count":7,"name":"Tim Hortons","neighborhoods":["Ville-Marie"],"longitude":-73.569,"state":"QC","stars":2.5,"latitude":45.5028},{"business_id":"IFfx9sxgcBuWoe3pAcbLvQ","categories":["Portuguese","French","Restaurants"],"city":"Montréal","review_count":4,"name":"Bistro Le Porto","neighborhoods":["Ville-Marie"],"longitude":-73.5614,"state":"QC","stars":5,"latitude":45.5233},{"business_id":"NVBDwjujs-VLhlUPI3-8MA","categories":["Food","Sandwiches","Food Trucks","Restaurants"],"city":"Montréal","review_count":4,"name":"Zoe's Food Truck","neighborhoods":["Ahunstic-Cartierville"],"longitude":-73.6481,"state":"QC","stars":4,"latitude":45.5365},{"business_id":"CaAkTpmdj-IODoCcJ9eE3g","categories":["Sushi Bars","Japanese","Restaurants"],"city":"Montréal","review_count":9,"name":"Sushi Plus","neighborhoods":["Côte-des-Neiges"],"longitude":-73.6306,"state":"QC","stars":3.5,"latitude":45.4999},{"business_id":"u9HjSlbVxJ-X0kF-eg2kMQ","categories":["Mexican","Restaurants"],"city":"Montréal","review_count":53,"name":"Tequila Taco House","neighborhoods":["Plateau-Mont-Royal","Ville-Marie"],"longitude":-73.5693,"state":"QC","stars":3.5,"latitude":45.5126},{"business_id":"OCJnXyn2pYgt_EOHbVo_AA","categories":["Italian","Cafes","Restaurants"],"city":"Montréal","review_count":6,"name":"Lucci Café","neighborhoods":["Sud-Ouest"],"longitude":-73.5671,"state":"QC","stars":4.5,"latitude":45.4872},{"business_id":"4B3fxCfIQqUb-mSI2b2SIg","categories":["Restaurants"],"city":"Montréal","review_count":6,"name":"Planet Oeuf","neighborhoods":["Rosemont-La Petite-Patrie"],"longitude":-73.5755,"state":"QC","stars":3.5,"latitude":45.5467},{"business_id":"S6W_CWC7xgZPnB_qmR6wig","categories":["Burgers","Diners","Restaurants"],"city":"Montréal","review_count":33,"name":"L'Gros Luxe","neighborhoods":["Sud-Ouest"],"longitude":-73.5749,"state":"QC","stars":3,"latitude":45.4831},{"business_id":"XfWtEoivr71v5SISpHPz9w","categories":["Indian","Restaurants"],"city":"Montréal","review_count":7,"name":"La Porte de L'Inde","neighborhoods":["Plateau-Mont-Royal"],"longitude":-73.5944,"state":"QC","stars":3.5,"latitude":45.524},{"business_id":"ZFxUzyUMq7FQTewgDGO9IA","categories":["Mediterranean","Restaurants"],"city":"Montréal","review_count":8,"name":"Apollo Globe","neighborhoods":["Ville-Marie"],"longitude":-73.5707,"state":"QC","stars":3,"latitude":45.5038},{"business_id":"DUxibGmcvaYhg1k46cnBiA","categories":["Burgers","Breakfast & Brunch","Creperies","Restaurants"],"city":"Montréal","review_count":13,"name":"Brulerie Urbaine","neighborhoods":["Côte-des-Neiges"],"longitude":-73.6214,"state":"QC","stars":3.5,"latitude":45.4957},{"business_id":"QPcgOFztE3zOMskKAViZ4Q","categories":["Breakfast & Brunch","Creperies","Restaurants"],"city":"Montréal","review_count":3,"name":"Crepe Mont Royal(Une)","neighborhoods":["Plateau-Mont-Royal"],"longitude":-73.5826,"state":"QC","stars":3,"latitude":45.5243},{"business_id":"RSpE4CQ1C4EJWZZ6kQ3LAA","categories":["Cafes","Restaurants"],"city":"Montreal","review_count":4,"name":"Cafe Des Beaux Arts","neighborhoods":["Ville-Marie"],"longitude":-73.5793,"state":"QC","stars":3,"latitude":45.4984},{"business_id":"U0LtcorP6rR5hGxwfV00HA","categories":["Food","Desserts","Cafes","Sandwiches","Restaurants"],"city":"Montréal","review_count":3,"name":"Les Gâteries Monk","neighborhoods":["Sud-Ouest"],"longitude":-73.5944,"state":"QC","stars":3,"latitude":45.4547},{"business_id":"WhS0qLdaPzOb_EX2YwSd4g","categories":["Food","Ice Cream & Frozen Yogurt","Delis","Restaurants"],"city":"Montréal","review_count":17,"name":"Deli Sokolow","neighborhoods":["Sud-Ouest"],"longitude":-73.5864,"state":"QC","stars":3.5,"latitude":45.4753},{"business_id":"dVbjS8t4UXh7wdeUaIGsXQ","categories":["Tapas/Small Plates","Bars","Nightlife","Wine Bars","Restaurants"],"city":"Montréal","review_count":126,"name":"Pullman","neighborhoods":["Plateau-Mont-Royal"],"longitude":-73.572,"state":"QC","stars":4,"latitude":45.5086},{"business_id":"n18yM8ba7fF6MajqejxLJA","categories":["Soup","Vietnamese","Restaurants"],"city":"Montréal","review_count":129,"name":"Pho Bang New York","neighborhoods":["Ville-Marie"],"longitude":-73.5592,"state":"QC","stars":3.5,"latitude":45.508},{"business_id":"elstmdus1x-alE3RvVP9DQ","categories":["Indian","Restaurants"],"city":"Montréal","review_count":53,"name":"Maison Indian Curry","neighborhoods":["Villeray-Saint-Michel-Parc-Extension"],"longitude":-73.6254,"state":"QC","stars":4,"latitude":45.5248},{"business_id":"6Efw9SBRpyFZtFhEL6y52A","categories":["Asian Fusion","Restaurants"],"city":"Montréal","review_count":4,"name":"Dragon Magnifique","neighborhoods":["Saint-Léonard"],"longitude":-73.5812,"state":"QC","stars":2.5,"latitude":45.5805},{"business_id":"pNNiVpYRjGOldveDMVrXMQ","categories":["Sushi Bars","Japanese","Gluten-Free","Restaurants"],"city":"Montréal","review_count":26,"name":"Kaizen Sushi Bar & Bio Gourmet Restaurant","neighborhoods":["Ville-Marie"],"longitude":-73.5866,"state":"QC","stars":3,"latitude":45.4876},{"business_id":"eUM3W7s6CUZkaUJDTRbP_w","categories":["Lebanese","Pizza","Middle Eastern","Restaurants"],"city":"Montréal","review_count":32,"name":"Al Taib","neighborhoods":["Ville-Marie"],"longitude":-73.58,"state":"QC","stars":4,"latitude":45.496},{"business_id":"nid3ijaDDdeXmwBKx41A4g","categories":["Restaurants","Pizza","Italian"],"city":"Montréal","review_count":13,"name":"Sapori Di Napoli","neighborhoods":["Ahunstic-Cartierville"],"longitude":-73.6869,"state":"QC","stars":4.5,"latitude":45.541},{"business_id":"c1JU5rNa8CYupUNklOpjHQ","categories":["Vegetarian","Asian Fusion","Chinese","Restaurants"],"city":"Montréal","review_count":33,"name":"P F Chang's","neighborhoods":["Côte-des-Neiges","Mont-Royal"],"longitude":-73.6561,"state":"QC","stars":2.5,"latitude":45.4926},{"business_id":"qcvFNvkneWv1zePa3Uq6-w","categories":["Pubs","Irish","Nightlife","Bars","Restaurants"],"city":"Montréal","review_count":42,"name":"Ye Olde Orchard Pub & Grill","neighborhoods":["Ville-Marie"],"longitude":-73.5736,"state":"QC","stars":4,"latitude":45.4972}]
