[{"business_id":"A9yOopsy2bQgStF3Y6lSyA","categories":["Breakfast & Brunch","French","Restaurants"],"city":"Montréal","review_count":15,"name":"Bagatelle","neighborhoods":["Mercier-Hochelaga-Maisonneuve"],"longitude":-73.5396,"state":"QC","stars":4.5,"latitude":45.5528,"cat":"French"},{"business_id":"gas4eqbnp_dzdA3kith5XA","categories":["French","Restaurants"],"city":"Montréal","review_count":12,"name":"Chez Cora","neighborhoods":["Mercier-Hochelaga-Maisonneuve"],"longitude":-73.5492,"state":"QC","stars":3.5,"latitude":45.573,"cat":"French"},{"business_id":"-bfARaSSodNvJsh4jkB78w","categories":["Restaurants","French","Italian"],"city":"Montréal","review_count":3,"name":"Pacini","neighborhoods":["Mercier-Hochelaga-Maisonneuve"],"longitude":-73.5438,"state":"QC","stars":2.5,"latitude":45.5823,"cat":"French"},{"business_id":"0RsYRnk0z2Y_GbK7fB9nLQ","categories":["Breakfast & Brunch","French","Restaurants"],"city":"Montréal","review_count":8,"name":"Cabotins","neighborhoods":["Mercier-Hochelaga-Maisonneuve"],"longitude":-73.5308,"state":"QC","stars":4,"latitude":45.5561,"cat":"French"},{"business_id":"EUqCIk70-jb8BKKKfP2wQA","categories":["Caterers","Event Planning & Services","French","Restaurants"],"city":"Montréal","review_count":17,"name":"M sur Masson","neighborhoods":["Rosemont-La Petite-Patrie"],"longitude":-73.5749,"state":"QC","stars":4.5,"latitude":45.5478,"cat":"French"},{"business_id":"_S2-dXncn0w8vYKP9KHHtA","categories":["French","Restaurants"],"city":"Montréal","review_count":3,"name":"Bistro Vert Lime","neighborhoods":["Mercier-Hochelaga-Maisonneuve"],"longitude":-73.5402,"state":"QC","stars":4.5,"latitude":45.552,"cat":"French"},{"business_id":"fpt26V0LGWkvfp5N-zJqLg","categories":["French","Restaurants"],"city":"Montréal","review_count":6,"name":"Station F","neighborhoods":["Rosemont-La Petite-Patrie"],"longitude":-73.5603,"state":"QC","stars":4,"latitude":45.5456,"cat":"French"},{"business_id":"_dgnqH3rz1L_qOGMeihIyA","categories":["French","Restaurants"],"city":"Montréal","review_count":80,"name":"Le Bourlingueur","neighborhoods":["Ville-Marie"],"longitude":-73.5551,"state":"QC","stars":3.5,"latitude":45.5027,"cat":"French"},{"business_id":"I0OlH5vvmwuRfwQq9ccuyQ","categories":["French","Restaurants"],"city":"Montreal","review_count":5,"name":"Cafe Le Petit Flore","neighborhoods":["Ahunstic-Cartierville"],"longitude":-73.659,"state":"QC","stars":3.5,"latitude":45.5587,"cat":"French"},{"business_id":"6xVLUcXXCCYQ9Boe8bhdQw","categories":["French","Restaurants"],"city":"Montréal","review_count":32,"name":"Au Petit Extra","neighborhoods":["Ville-Marie"],"longitude":-73.5595,"state":"QC","stars":4,"latitude":45.5256,"cat":"French"},{"business_id":"Dfi39v93A9gNLH8m8S16kw","categories":["Modern European","Fondue","French","Restaurants"],"city":"Montréal","review_count":23,"name":"Restaurant La Raclette","neighborhoods":["Plateau-Mont-Royal"],"longitude":-73.5828,"state":"QC","stars":4.5,"latitude":45.5296,"cat":"French"},{"business_id":"CvaitQbPilPx06hyUrujvQ","categories":["Tapas Bars","French","Restaurants"],"city":"Montréal","review_count":72,"name":"Confusion Tapas du Monde","neighborhoods":["Ville-Marie"],"longitude":-73.5632,"state":"QC","stars":4,"latitude":45.515,"cat":"French"},{"business_id":"X_unrEd0DOcR-FfzHT-Tcg","categories":["French","Restaurants"],"city":"Montréal","review_count":141,"name":"Marché de la Villette","neighborhoods":["Ville-Marie"],"longitude":-73.5561,"state":"QC","stars":3.5,"latitude":45.5012,"cat":"French"},{"business_id":"rP8Yyz863ScrQAXX_Cvn2w","categories":["French","Restaurants"],"city":"Montréal","review_count":5,"name":"Raza","neighborhoods":["Plateau-Mont-Royal"],"longitude":-73.594,"state":"QC","stars":5,"latitude":45.5215,"cat":"French"},{"business_id":"ZME1VmyWHabuYPNibAXTKQ","categories":["Food","Coffee & Tea","French","Restaurants"],"city":"Montréal","review_count":3,"name":"El-Mundo Cafe Bistro","neighborhoods":["Rosemont-La Petite-Patrie","Villeray-Saint-Michel-Parc-Extension"],"longitude":-73.6133,"state":"QC","stars":3,"latitude":45.5406,"cat":"French"},{"business_id":"Pc1KMdGRuCQieE2hzRhF_w","categories":["French","Restaurants"],"city":"Montréal","review_count":8,"name":"Restaurant La Porte","neighborhoods":["Plateau-Mont-Royal"],"longitude":-73.5731,"state":"QC","stars":4.5,"latitude":45.5143,"cat":"French"},{"business_id":"M9qbIngT0Ya9YfuxKYjPkg","categories":["French","Restaurants"],"city":"Montréal","review_count":20,"name":"Chez Queux","neighborhoods":["Ville-Marie"],"longitude":-73.5524,"state":"QC","stars":3.5,"latitude":45.5074,"cat":"French"},{"business_id":"eYmiExDI2DHgYc_rwO4ccQ","categories":["French","Restaurants"],"city":"Montréal","review_count":15,"name":"Restaurant Le Bleu Raisin","neighborhoods":["Plateau-Mont-Royal"],"longitude":-73.5913,"state":"QC","stars":3,"latitude":45.528,"cat":"French"},{"business_id":"BtNr3g9oX1iDjshq_plVYw","categories":["French","Restaurants"],"city":"Montréal","review_count":8,"name":"Restaurant les Infideles","neighborhoods":["Plateau-Mont-Royal"],"longitude":-73.5768,"state":"QC","stars":3.5,"latitude":45.5234,"cat":"French"},{"business_id":"3bx6Se8Fu8D6tzGfpW2oqQ","categories":["Canadian (New)","French","Restaurants"],"city":"Montréal","review_count":51,"name":"Verses Restaurant","neighborhoods":["Ville-Marie"],"longitude":-73.5545,"state":"QC","stars":3.5,"latitude":45.5043,"cat":"French"},{"business_id":"rEY5Of2_sKUOlhHAh_scgg","categories":["French","Restaurants"],"city":"Montréal","review_count":35,"name":"Les Trois Petits Bouchons","neighborhoods":["Plateau-Mont-Royal"],"longitude":-73.585,"state":"QC","stars":4.5,"latitude":45.5251,"cat":"French"},{"business_id":"XaBiq9xcAhvb8e2dENBC5w","categories":["French","Restaurants"],"city":"Montréal","review_count":23,"name":"Auberge Bonaparte","neighborhoods":["Ville-Marie"],"longitude":-73.5562,"state":"QC","stars":4.5,"latitude":45.5033,"cat":"French"},{"business_id":"g2tqRwPWHCWtr_SEEAECoQ","categories":["Food","Specialty Food","Breakfast & Brunch","French","Restaurants"],"city":"Montréal","review_count":284,"name":"Le Cartet","neighborhoods":["Ville-Marie"],"longitude":-73.5552,"state":"QC","stars":4,"latitude":45.4994,"cat":"French"},{"business_id":"FMUzAo51ti2PS4va9VyTsA","categories":["Breakfast & Brunch","French","Restaurants"],"city":"Montréal","review_count":47,"name":"Café Cherrier","neighborhoods":["Plateau-Mont-Royal"],"longitude":-73.5697,"state":"QC","stars":3.5,"latitude":45.5182,"cat":"French"},{"business_id":"v-w9fF91VUFwuCbVc3atUA","categories":["French","Restaurants"],"city":"Montréal","review_count":143,"name":"Toqué","neighborhoods":["Ville-Marie"],"longitude":-73.5612,"state":"QC","stars":4,"latitude":45.5029,"cat":"French"},{"business_id":"Fo4EsFdje95EjZSIhpUPPg","categories":["Belgian","French","Restaurants"],"city":"Montréal","review_count":7,"name":"Frite Alors","neighborhoods":["Plateau-Mont-Royal"],"longitude":-73.5824,"state":"QC","stars":4,"latitude":45.5347,"cat":"French"},{"business_id":"uinob0YMJfzZ5lcuetCVdA","categories":["French","Restaurants"],"city":"Montréal","review_count":3,"name":"Le Margaux","neighborhoods":["Plateau-Mont-Royal"],"longitude":-73.5955,"state":"QC","stars":4.5,"latitude":45.5193,"cat":"French"},{"business_id":"6bCXom6ZlRxuyMZKUYyUtQ","categories":["Italian","French","Restaurants"],"city":"Montréal","review_count":3,"name":"Apollo","neighborhoods":["Rosemont-La Petite-Patrie"],"longitude":-73.6078,"state":"QC","stars":4.5,"latitude":45.5301,"cat":"French"},{"business_id":"MPp91qicKlkhaDtmzNUeSQ","categories":["French","Restaurants"],"city":"Montréal","review_count":16,"name":"Restaurant Des Gouverneurs","neighborhoods":["Ville-Marie"],"longitude":-73.554,"state":"QC","stars":2,"latitude":45.5079,"cat":"French"},{"business_id":"gu7hgnFVCPcP6s1KmKix9A","categories":["Seafood","French","Restaurants"],"city":"Montréal","review_count":9,"name":"Restaurant Le Poisson Rouge","neighborhoods":["Plateau-Mont-Royal"],"longitude":-73.5735,"state":"QC","stars":3.5,"latitude":45.5266,"cat":"French"},{"business_id":"Gi4WkWbJ0xMPC8wuOb6XqA","categories":["French","Restaurants"],"city":"Montréal","review_count":18,"name":"La Gargote","neighborhoods":["Ville-Marie"],"longitude":-73.5559,"state":"QC","stars":4,"latitude":45.501,"cat":"French"},{"business_id":"FTkaKbqXH7a-Zb10fSfuxw","categories":["French","Restaurants"],"city":"Montréal","review_count":96,"name":"Boris Bistro","neighborhoods":["Ville-Marie"],"longitude":-73.5587,"state":"QC","stars":4,"latitude":45.5008,"cat":"French"},{"business_id":"SwSUNo-AeHeKwPkaUQgtCQ","categories":["French","Restaurants"],"city":"Montréal","review_count":5,"name":"Au Petit Resto","neighborhoods":["Plateau-Mont-Royal"],"longitude":-73.5774,"state":"QC","stars":4.5,"latitude":45.534,"cat":"French"},{"business_id":"k0HMz_0Q7EJDx3w4TWwsSw","categories":["Breakfast & Brunch","French","Restaurants"],"city":"Montréal","review_count":18,"name":"Bistro l'Enchanteur","neighborhoods":["Villeray-Saint-Michel-Parc-Extension"],"longitude":-73.6182,"state":"QC","stars":3.5,"latitude":45.5379,"cat":"French"},{"business_id":"fxvBTblqVJSlWdPM7ToGXg","categories":["French","Restaurants"],"city":"Montréal","review_count":37,"name":"Chez Lévêque","neighborhoods":["Outremont"],"longitude":-73.5968,"state":"QC","stars":3.5,"latitude":45.5183,"cat":"French"},{"business_id":"zP5XWExdUaojm3Ps7nKYnQ","categories":["French","Restaurants"],"city":"Montréal","review_count":140,"name":"Restaurant Bonaparte","neighborhoods":["Ville-Marie"],"longitude":-73.5561,"state":"QC","stars":4.5,"latitude":45.5032,"cat":"French"},{"business_id":"RbntYkhaz2BI_Zx9vz6BeQ","categories":["French","Restaurants"],"city":"Montréal","review_count":70,"name":"Chez L'épicier Restaurant Bar à Vin","neighborhoods":["Ville-Marie"],"longitude":-73.5519,"state":"QC","stars":4,"latitude":45.5087,"cat":"French"},{"business_id":"S2kUbhLOVYTRChXSQ7qoNw","categories":["French","Restaurants"],"city":"Montréal","review_count":15,"name":"Pèlerin-Magellan","neighborhoods":["Ville-Marie"],"longitude":-73.5653,"state":"QC","stars":4,"latitude":45.5151,"cat":"French"},{"business_id":"iSUl71PQX_ruUlTsXX8f1A","categories":["French","Restaurants"],"city":"Montréal","review_count":22,"name":"La Brioche Lyonnaise","neighborhoods":["Ville-Marie"],"longitude":-73.5625,"state":"QC","stars":3,"latitude":45.5149,"cat":"French"},{"business_id":"oZRp4tgNT1jORygRKOKXJA","categories":["French","Restaurants"],"city":"Montréal","review_count":21,"name":"Le Restaurant de l'Institut","neighborhoods":["Plateau-Mont-Royal"],"longitude":-73.5687,"state":"QC","stars":4,"latitude":45.5181,"cat":"French"},{"business_id":"IFfx9sxgcBuWoe3pAcbLvQ","categories":["Portuguese","French","Restaurants"],"city":"Montréal","review_count":4,"name":"Bistro Le Porto","neighborhoods":["Ville-Marie"],"longitude":-73.5614,"state":"QC","stars":5,"latitude":45.5233,"cat":"French"},{"business_id":"xixOLADe7vX_JS0CFYZHbA","categories":["French","Restaurants"],"city":"Montréal","review_count":13,"name":"Les Cons Servent","neighborhoods":["Plateau-Mont-Royal"],"longitude":-73.5806,"state":"QC","stars":3.5,"latitude":45.5356,"cat":"French"},{"business_id":"yExLD0e8edHuY4CDzV_Jfw","categories":["French","Restaurants"],"city":"Montréal","review_count":5,"name":"Bistro Etc","neighborhoods":["Plateau-Mont-Royal"],"longitude":-73.5776,"state":"QC","stars":2.5,"latitude":45.5298,"cat":"French"},{"business_id":"FLdXCNVr62rufmbW4tB8JA","categories":["French","Restaurants"],"city":"Montréal","review_count":116,"name":"Laloux","neighborhoods":["Plateau-Mont-Royal"],"longitude":-73.5731,"state":"QC","stars":4.5,"latitude":45.5174,"cat":"French"},{"business_id":"KEopXGnfgw3ZxtsUmAfYrA","categories":["French","Restaurants"],"city":"Montréal","review_count":20,"name":"Le P'tit Plateau","neighborhoods":["Plateau-Mont-Royal"],"longitude":-73.5811,"state":"QC","stars":5,"latitude":45.5223,"cat":"French"},{"business_id":"nqrFZSku7CuLSwk_Izrcyw","categories":["Bars","Nightlife","French","Restaurants"],"city":"Montréal","review_count":7,"name":"Café République","neighborhoods":["Plateau-Mont-Royal"],"longitude":-73.572,"state":"QC","stars":2.5,"latitude":45.5138,"cat":"French"},{"business_id":"Q3I0M5GsLn0EiNRL8lI8_Q","categories":["French","Restaurants"],"city":"Montréal","review_count":6,"name":"L'Arrivage","neighborhoods":["Ville-Marie"],"longitude":-73.5541,"state":"QC","stars":4,"latitude":45.5026,"cat":"French"},{"business_id":"WpLIWn4x7ubCKpST4r1T_Q","categories":["Burgers","Diners","French","Restaurants"],"city":"Montréal","review_count":36,"name":"L'Anecdote","neighborhoods":["Plateau-Mont-Royal"],"longitude":-73.5766,"state":"QC","stars":4,"latitude":45.5237,"cat":"French"},{"business_id":"FPR-1Ujh6-LldyseoQ_zlg","categories":["Pubs","Bars","Nightlife","French","Restaurants"],"city":"Montréal","review_count":8,"name":"La Taverne Normand","neighborhoods":["Plateau-Mont-Royal"],"longitude":-73.5759,"state":"QC","stars":3.5,"latitude":45.5316,"cat":"French"},{"business_id":"5YlCdxdzljZTu0iVvakuHw","categories":["French","Restaurants"],"city":"Montréal","review_count":19,"name":"Kitchen Galerie","neighborhoods":["Rosemont-La Petite-Patrie"],"longitude":-73.617,"state":"QC","stars":4.5,"latitude":45.5353,"cat":"French"},{"business_id":"2lWWQWdSVwT7KHrtXFDHuA","categories":["French","Restaurants"],"city":"Montréal","review_count":379,"name":"L'Express","neighborhoods":["Plateau-Mont-Royal"],"longitude":-73.5744,"state":"QC","stars":4.5,"latitude":45.5203,"cat":"French"},{"business_id":"u4-WTQ20yLInpCWHIA4fag","categories":["French","Restaurants"],"city":"Montréal","review_count":47,"name":"Les Deux Singes de Montarvie","neighborhoods":["Plateau-Mont-Royal"],"longitude":-73.6008,"state":"QC","stars":4.5,"latitude":45.5236,"cat":"French"},{"business_id":"m_BnpyGYYMxrcqLALaRwjA","categories":["French","Restaurants"],"city":"Montréal","review_count":31,"name":"Au Cinquième Péché","neighborhoods":["Plateau-Mont-Royal"],"longitude":-73.5824,"state":"QC","stars":4.5,"latitude":45.5239,"cat":"French"},{"business_id":"JuSOfESMCsOdIW_-hA6Nkw","categories":["French","Restaurants"],"city":"Montréal","review_count":4,"name":"Restaurant Apres Le Jour","neighborhoods":["Plateau-Mont-Royal"],"longitude":-73.5759,"state":"QC","stars":2.5,"latitude":45.5244,"cat":"French"},{"business_id":"dqUNxoAI1tHMHdsuK0QfHw","categories":["French","Restaurants"],"city":"Montréal","review_count":9,"name":"Restaurant Le Jurancon","neighborhoods":["Rosemont-La Petite-Patrie"],"longitude":-73.6052,"state":"QC","stars":5,"latitude":45.5389,"cat":"French"},{"business_id":"p6Dc0dfUcOgYJ5LZR1-D8w","categories":["French","Restaurants"],"city":"Montréal","review_count":9,"name":"Restaurant Au 917","neighborhoods":["Plateau-Mont-Royal"],"longitude":-73.5758,"state":"QC","stars":4,"latitude":45.5246,"cat":"French"},{"business_id":"HsRPbMlpFNOlIQHSqF1X0A","categories":["Creperies","French","Restaurants"],"city":"Montréal","review_count":19,"name":"Crêperie Bretonne Ty-Breiz","neighborhoods":["Plateau-Mont-Royal"],"longitude":-73.5755,"state":"QC","stars":3.5,"latitude":45.5248,"cat":"French"},{"business_id":"7S703oJyFElhcczxydm7hg","categories":["French","Restaurants"],"city":"Montréal","review_count":3,"name":"Forget Restaurant","neighborhoods":["Ville-Marie"],"longitude":-73.5517,"state":"QC","stars":3.5,"latitude":45.5092,"cat":"French"},{"business_id":"QTKxE50ib1MmBqpBDnrWsg","categories":["Breakfast & Brunch","French","Restaurants"],"city":"Montréal","review_count":8,"name":"Patisserie Polonaise Wawel","neighborhoods":["Ville-Marie"],"longitude":-73.5529,"state":"QC","stars":5,"latitude":45.5329,"cat":"French"},{"business_id":"rIR1Fo_MZN7vy9if6G_wuQ","categories":["French","Restaurants"],"city":"Montréal","review_count":10,"name":"Café Méliès","neighborhoods":["Plateau-Mont-Royal"],"longitude":-73.5715,"state":"QC","stars":4,"latitude":45.5133,"cat":"French"},{"business_id":"UW9q_26cX8fKqtO28n78AQ","categories":["French","Restaurants"],"city":"Montréal","review_count":153,"name":"Leméac","neighborhoods":["Outremont"],"longitude":-73.5972,"state":"QC","stars":4,"latitude":45.5183,"cat":"French"},{"business_id":"qvyNSlcajDhrZO1GfSZbgw","categories":["French","Restaurants"],"city":"Montréal","review_count":7,"name":"Restaurant Le Coin G","neighborhoods":["Villeray-Saint-Michel-Parc-Extension"],"longitude":-73.6339,"state":"QC","stars":3.5,"latitude":45.5405,"cat":"French"},{"business_id":"rjhNXed468IljOn1yktP0g","categories":["French","Restaurants"],"city":"Montréal","review_count":9,"name":"Restaurant Bungalow","neighborhoods":["Plateau-Mont-Royal"],"longitude":-73.5761,"state":"QC","stars":4.5,"latitude":45.5235,"cat":"French"},{"business_id":"yXga5Xoc5fe-G_yAPGU8wA","categories":["French","Restaurants"],"city":"Montréal","review_count":4,"name":"Restaurant Le Prince Arthur","neighborhoods":["Plateau-Mont-Royal"],"longitude":-73.5721,"state":"QC","stars":3.5,"latitude":45.5145,"cat":"French"},{"business_id":"oTYVbbrF5cBDqAw8ij6V_Q","categories":["French","Restaurants"],"city":"Montréal","review_count":5,"name":"Restaurant O Chalet","neighborhoods":["Ville-Marie"],"longitude":-73.5522,"state":"QC","stars":4.5,"latitude":45.5193,"cat":"French"},{"business_id":"pk83uhwbw43oyV-fRgtXUw","categories":["French","Restaurants"],"city":"Montréal","review_count":23,"name":"Restaurant La Maree","neighborhoods":["Ville-Marie"],"longitude":-73.5527,"state":"QC","stars":1.5,"latitude":45.5075,"cat":"French"},{"business_id":"kfwn3V2EG-4yTG3FM39V7Q","categories":["Spanish","French","Restaurants"],"city":"Montréal","review_count":71,"name":"Restaurant Les Pyrénées","neighborhoods":["Ville-Marie"],"longitude":-73.5561,"state":"QC","stars":4,"latitude":45.5013,"cat":"French"},{"business_id":"RmCLbnuKQcfRSHQsbXFAZg","categories":["French","Restaurants"],"city":"Montréal","review_count":190,"name":"Holder Restaurant Bar","neighborhoods":["Ville-Marie"],"longitude":-73.5574,"state":"QC","stars":4,"latitude":45.5005,"cat":"French"},{"business_id":"iaBiCuYKRHBZyJV3HKmuBQ","categories":["French","Restaurants"],"city":"Montréal","review_count":3,"name":"Restaurant La Petite Ardoise","neighborhoods":["Plateau-Mont-Royal"],"longitude":-73.5947,"state":"QC","stars":3,"latitude":45.5206,"cat":"French"},{"business_id":"srRXKY6r58L7oJ9T4ZNyFA","categories":["French","Restaurants"],"city":"Montréal","review_count":6,"name":"A l'Os","neighborhoods":["Plateau-Mont-Royal"],"longitude":-73.5948,"state":"QC","stars":4,"latitude":45.5242,"cat":"French"},{"business_id":"fkPYzU7ovRHcq3BkTxTEdw","categories":["Modern European","French","Restaurants"],"city":"Montréal","review_count":6,"name":"Détour Bistro","neighborhoods":["Rosemont-La Petite-Patrie"],"longitude":-73.5916,"state":"QC","stars":4.5,"latitude":45.5485,"cat":"French"},{"business_id":"wCRW3pHWGa565AtcwkXYkQ","categories":["French","Restaurants"],"city":"Montréal","review_count":3,"name":"Resto L'independent","neighborhoods":["Ville-Marie"],"longitude":-73.5551,"state":"QC","stars":4,"latitude":45.5197,"cat":"French"},{"business_id":"3-wjIKCaFP1vt_SllQz-8Q","categories":["French","Restaurants"],"city":"Montréal","review_count":5,"name":"Café Croissant De Lune","neighborhoods":["Ville-Marie"],"longitude":-73.5649,"state":"QC","stars":3,"latitude":45.5159,"cat":"French"},{"business_id":"3StNFdnfDPYWYsMZyvGFpA","categories":["Creperies","French","Restaurants"],"city":"Montréal","review_count":206,"name":"Chez Suzette","neighborhoods":["Ville-Marie"],"longitude":-73.5536,"state":"QC","stars":3.5,"latitude":45.5059,"cat":"French"},{"business_id":"RULtOFDb3HBo7a5HAQ8sWQ","categories":["French","Restaurants"],"city":"Montréal","review_count":248,"name":"Modavie Resto-Bar","neighborhoods":["Ville-Marie"],"longitude":-73.5539,"state":"QC","stars":4,"latitude":45.5055,"cat":"French"},{"business_id":"nBBEE1YVO0atXbkxfrNPhQ","categories":["Brasseries","French","Restaurants"],"city":"Montréal","review_count":13,"name":"Les Héritiers","neighborhoods":["Plateau-Mont-Royal"],"longitude":-73.5737,"state":"QC","stars":4,"latitude":45.5341,"cat":"French"},{"business_id":"HS2mBnsyFqlXrePt8AAWJQ","categories":["Brasseries","French","Restaurants"],"city":"Montréal","review_count":25,"name":"Le Fripon","neighborhoods":["Ville-Marie"],"longitude":-73.5533,"state":"QC","stars":2.5,"latitude":45.5077,"cat":"French"},{"business_id":"bVcXnHtJ38JlmRW-Jf_ylA","categories":["French","Restaurants"],"city":"Montréal","review_count":9,"name":"La Colombe","neighborhoods":["Plateau-Mont-Royal"],"longitude":-73.5743,"state":"QC","stars":4.5,"latitude":45.5225,"cat":"French"},{"business_id":"QVmZlZVnyRBS3xDUYPS3WQ","categories":["French","Restaurants"],"city":"Montréal","review_count":16,"name":"Restaurant Le Grain De Sel","neighborhoods":["Ville-Marie"],"longitude":-73.5475,"state":"QC","stars":4.5,"latitude":45.5281,"cat":"French"},{"business_id":"a2CNip7uwHDuy-RlNxS_CQ","categories":["French","Restaurants"],"city":"Montréal","review_count":7,"name":"Resto La Menthe Poivree","neighborhoods":["Rosemont-La Petite-Patrie"],"longitude":-73.5873,"state":"QC","stars":4.5,"latitude":45.5457,"cat":"French"},{"business_id":"dbr8T9yFshgHmgjYutcSGg","categories":["French","Restaurants"],"city":"Montréal","review_count":9,"name":"L'Atelier","neighborhoods":["Plateau-Mont-Royal"],"longitude":-73.5963,"state":"QC","stars":4,"latitude":45.5245,"cat":"French"},{"business_id":"ElTdljGpkETYZIYegTK9JA","categories":["Burgers","Diners","French","Restaurants"],"city":"Montréal","review_count":83,"name":"Frite Alors","neighborhoods":["Ville-Marie"],"longitude":-73.5644,"state":"QC","stars":4,"latitude":45.5154,"cat":"French"},{"business_id":"i2IHXrDgGumZ32MdZLIgaA","categories":["Cajun/Creole","African","French","Restaurants"],"city":"Montréal","review_count":8,"name":"Restaurant Le Piton De La Fournaise","neighborhoods":["Plateau-Mont-Royal"],"longitude":-73.5739,"state":"QC","stars":5,"latitude":45.5229,"cat":"French"},{"business_id":"Hn3vqlBkic_BB4v35MHyZw","categories":["French","Restaurants"],"city":"Montréal","review_count":14,"name":"Restaurant Fourquet Fourchette","neighborhoods":["Ville-Marie"],"longitude":-73.5601,"state":"QC","stars":4,"latitude":45.5037,"cat":"French"},{"business_id":"e8Xh5J6w4UngNoiRc5hLNQ","categories":["Asian Fusion","French","Restaurants"],"city":"Montréal","review_count":6,"name":"Gourmet Asian Fusion","neighborhoods":["Plateau-Mont-Royal"],"longitude":-73.5768,"state":"QC","stars":4,"latitude":45.521,"cat":"French"},{"business_id":"T903SkJTdLjDrSwEKH1rgA","categories":["French","Restaurants"],"city":"Montréal","review_count":8,"name":"Restaurant A L'aventure","neighborhoods":["Ville-Marie"],"longitude":-73.5534,"state":"QC","stars":3.5,"latitude":45.5077,"cat":"French"},{"business_id":"fvBau9SuuqR6nNq82HiVwQ","categories":["French","Restaurants"],"city":"Montréal","review_count":4,"name":"Bar Laitier Le Patio Enr","neighborhoods":["Plateau-Mont-Royal"],"longitude":-73.5807,"state":"QC","stars":4.5,"latitude":45.526,"cat":"French"},{"business_id":"6CvV6e57dnliroUmefpOLw","categories":["Canadian (New)","French","Restaurants"],"city":"Montréal","review_count":140,"name":"Le Club Chasse et Pêche","neighborhoods":["Ville-Marie"],"longitude":-73.5525,"state":"QC","stars":4.5,"latitude":45.5089,"cat":"French"},{"business_id":"PGaHpoxm0CWTKhB1Qy2p4Q","categories":["French","Restaurants"],"city":"Montréal","review_count":4,"name":"Presse Cafe","neighborhoods":["Ville-Marie"],"longitude":-73.5592,"state":"QC","stars":3.5,"latitude":45.5011,"cat":"French"},{"business_id":"7lal9aFhyfm5n3GX8XZ7SQ","categories":["French","Restaurants"],"city":"Montréal","review_count":11,"name":"Restaurant Carte Blanche","neighborhoods":["Ville-Marie"],"longitude":-73.5627,"state":"QC","stars":3.5,"latitude":45.5209,"cat":"French"},{"business_id":"xk4FO3d4cn3ymMN9uIqNGA","categories":["French","Restaurants"],"city":"Montreal","review_count":17,"name":"La Chronique","neighborhoods":["Plateau-Mont-Royal"],"longitude":-73.594,"state":"QC","stars":4.5,"latitude":45.5216,"cat":"French"},{"business_id":"ay5StmNCKJ7FtrEobQk_HQ","categories":["French","Restaurants"],"city":"Montreal","review_count":37,"name":"XO Le Restaurant","neighborhoods":["Ville-Marie"],"longitude":-73.5596,"state":"QC","stars":4.5,"latitude":45.5026,"cat":"French"},{"business_id":"Qifoi_o0ddFrNrUEpTiCiQ","categories":["Steakhouses","French","Restaurants"],"city":"Montréal","review_count":42,"name":"Steak Frites St-Paul","neighborhoods":["Ville-Marie"],"longitude":-73.5612,"state":"QC","stars":3.5,"latitude":45.5026,"cat":"French"},{"business_id":"MRBR17eVWS-ZRY6eYOzkCA","categories":["Seafood","Steakhouses","French","Restaurants"],"city":"Montréal","review_count":4,"name":"Steak Frites Saint-Paul","neighborhoods":["Plateau-Mont-Royal"],"longitude":-73.5864,"state":"QC","stars":2.5,"latitude":45.5306,"cat":"French"},{"business_id":"aM4rOQLbwpAjL3Xkgaevfw","categories":["French","Restaurants"],"city":"Montréal","review_count":3,"name":"Restaurant Le Boeuf Gourmand","neighborhoods":["Plateau-Mont-Royal"],"longitude":-73.5705,"state":"QC","stars":3.5,"latitude":45.5183,"cat":"French"},{"business_id":"A81O-DmzwQNcFuougCyq5A","categories":["French","Restaurants"],"city":"Montréal","review_count":32,"name":"Restaurant le Pégase","neighborhoods":["Plateau-Mont-Royal"],"longitude":-73.5778,"state":"QC","stars":4.5,"latitude":45.535,"cat":"French"},{"business_id":"0F9SlguwWGntcxX-ZG3CSA","categories":["Cafes","French","Restaurants"],"city":"Montréal","review_count":6,"name":"Cafe Luna D'oro","neighborhoods":["Ville-Marie"],"longitude":-73.5569,"state":"QC","stars":4,"latitude":45.5037,"cat":"French"},{"business_id":"XWVv710JXrF5Cl9lpNYshw","categories":["Brasseries","French","Restaurants"],"city":"Montréal","review_count":8,"name":"Bistro Cocagne","neighborhoods":["Plateau-Mont-Royal"],"longitude":-73.5733,"state":"QC","stars":4,"latitude":45.5196,"cat":"French"},{"business_id":"8yCCPKCfv9wYSG7G1EcZMA","categories":["French","Restaurants"],"city":"Montréal","review_count":16,"name":"Bistro le Cap Vert","neighborhoods":["Ville-Marie"],"longitude":-73.5705,"state":"QC","stars":3.5,"latitude":45.5016,"cat":"French"},{"business_id":"6GkoIpLf70UHbwoDgPAS_w","categories":["French","Restaurants"],"city":"Montréal","review_count":28,"name":"Alexandre Restaurant Francais","neighborhoods":["Ville-Marie"],"longitude":-73.5742,"state":"QC","stars":2.5,"latitude":45.5005,"cat":"French"},{"business_id":"J4Rh_Pi_knpkKOBjFHJBCA","categories":["French","Restaurants"],"city":"Montréal","review_count":12,"name":"Restaurant Julien","neighborhoods":["Ville-Marie"],"longitude":-73.5675,"state":"QC","stars":3.5,"latitude":45.5031,"cat":"French"},{"business_id":"ZulmdtfskW1cwCBnRn-nFw","categories":["French","Restaurants"],"city":"Montréal","review_count":31,"name":"Le Mas Des Oliviers","neighborhoods":["Ville-Marie"],"longitude":-73.5754,"state":"QC","stars":4.5,"latitude":45.4958,"cat":"French"},{"business_id":"OgbmQOU79dPunQNlzPzsEQ","categories":["Cafes","French","Restaurants"],"city":"Montréal","review_count":30,"name":"Alexandre et Fils","neighborhoods":["Ville-Marie"],"longitude":-73.5742,"state":"QC","stars":3,"latitude":45.5005,"cat":"French"},{"business_id":"9iaMnKdCQrJA-UPYmDYs7A","categories":["Tapas Bars","Canadian (New)","French","Restaurants"],"city":"Montréal","review_count":7,"name":"Ariel","neighborhoods":["Ville-Marie"],"longitude":-73.577,"state":"QC","stars":3.5,"latitude":45.4997,"cat":"French"},{"business_id":"z_8t0AeYl5l8IINwD2LfaA","categories":["Restaurants","French","Italian"],"city":"Montréal","review_count":19,"name":"Fiore Bistro","neighborhoods":["Ville-Marie"],"longitude":-73.5724,"state":"QC","stars":4.5,"latitude":45.5013,"cat":"French"},{"business_id":"5ketACtfmzcqj9GcHnuH7w","categories":["French","Restaurants"],"city":"Montréal","review_count":36,"name":"Restaurant L'autre Saison","neighborhoods":["Ville-Marie"],"longitude":-73.5783,"state":"QC","stars":4,"latitude":45.4986,"cat":"French"},{"business_id":"-vYXWPTZQ_XI3UZ2IyZ00Q","categories":["French","Restaurants"],"city":"Montréal","review_count":168,"name":"Europea Restaurant","neighborhoods":["Ville-Marie"],"longitude":-73.5742,"state":"QC","stars":4.5,"latitude":45.4977,"cat":"French"},{"business_id":"gBSPq-Wc5HJpboJ5joDLEw","categories":["French","Restaurants"],"city":"Montréal","review_count":18,"name":"Restaurant Le Paris","neighborhoods":["Ville-Marie"],"longitude":-73.5795,"state":"QC","stars":3,"latitude":45.4935,"cat":"French"},{"business_id":"NkLIJ9kUc_fzryQm-LEWOg","categories":["Russian","French","Restaurants"],"city":"Montréal","review_count":5,"name":"Troika Restaurant & Bar","neighborhoods":["Ville-Marie"],"longitude":-73.5786,"state":"QC","stars":3,"latitude":45.4986,"cat":"French"},{"business_id":"hIfzTioNknYq4e8puMZF9Q","categories":["Italian","Middle Eastern","French","Restaurants"],"city":"Montréal","review_count":22,"name":"Restaurant Decca 77","neighborhoods":["Ville-Marie"],"longitude":-73.5711,"state":"QC","stars":3.5,"latitude":45.4973,"cat":"French"},{"business_id":"Q4D5Zre41GBU8Nu0hq8vQw","categories":["French","Restaurants"],"city":"Montréal","review_count":5,"name":"Restaurant Le Tour De Ville","neighborhoods":["Ville-Marie"],"longitude":-73.5624,"state":"QC","stars":3.5,"latitude":45.4999,"cat":"French"},{"business_id":"BiDC7G5jBUqv2nu-XDPVlQ","categories":["French","Restaurants"],"city":"Montréal","review_count":7,"name":"Restaurant Le Caveau","neighborhoods":["Ville-Marie"],"longitude":-73.5732,"state":"QC","stars":3.5,"latitude":45.5041,"cat":"French"},{"business_id":"MgdPs9iYcFwS3kwbfxOcow","categories":["French","Restaurants"],"city":"Montréal","review_count":34,"name":"Le Grand Comptoir","neighborhoods":["Ville-Marie"],"longitude":-73.5684,"state":"QC","stars":3.5,"latitude":45.504,"cat":"French"},{"business_id":"CsItrbBidc4UdubQSHb54g","categories":["French","Restaurants"],"city":"Montréal","review_count":12,"name":"Restaurant Chez Lien Plus","neighborhoods":["Ville-Marie"],"longitude":-73.5728,"state":"QC","stars":3.5,"latitude":45.4989,"cat":"French"},{"business_id":"6tUz_RYIa82JVvAXR5nHwQ","categories":["Books, Mags, Music & Video","Restaurants","Shopping","French","Bookstores"],"city":"Montréal","review_count":13,"name":"Olivieri","neighborhoods":["Côte-des-Neiges"],"longitude":-73.6207,"state":"QC","stars":3.5,"latitude":45.4958,"cat":"French"},{"business_id":"5s2e_PCD5qshfBAFoLKqLg","categories":["French","Restaurants"],"city":"Montréal","review_count":11,"name":"Chez la Mère Michel","neighborhoods":["Ville-Marie"],"longitude":-73.5761,"state":"QC","stars":5,"latitude":45.4943,"cat":"French"},{"business_id":"tkauntftbXvZznaKCtrgPg","categories":["French","Restaurants"],"city":"Montréal","review_count":5,"name":"Restaurant Le Parchemin","neighborhoods":["Ville-Marie"],"longitude":-73.5707,"state":"QC","stars":4,"latitude":45.5038,"cat":"French"},{"business_id":"ku84NWBpnfgkfpIoQJmknQ","categories":["Food","Juice Bars & Smoothies","French","Restaurants"],"city":"Montréal","review_count":3,"name":"Jus Jugo Juice","neighborhoods":["Ville-Marie"],"longitude":-73.5664,"state":"QC","stars":4.5,"latitude":45.4982,"cat":"French"},{"business_id":"N3XhpaaNqSF18RCMS_PBNQ","categories":["French","Restaurants"],"city":"Montréal","review_count":6,"name":"Restaurant Le Maistre","neighborhoods":["Notre-Dame-de-Grâce"],"longitude":-73.6238,"state":"QC","stars":4,"latitude":45.4745,"cat":"French"},{"business_id":"2uOY0RrqcI1fp9cE79lu3g","categories":["Breakfast & Brunch","Cafes","French","Restaurants"],"city":"Montréal","review_count":13,"name":"Cafe Joe","neighborhoods":["Ville-Marie"],"longitude":-73.5813,"state":"QC","stars":3.5,"latitude":45.4848,"cat":"French"},{"business_id":"C1qFJ4kTySG5PtfJAqrA-w","categories":["Bakeries","Food","French","Restaurants"],"city":"Montréal","review_count":7,"name":"Boulangerie Premiere Moisson","neighborhoods":["Notre-Dame-de-Grâce"],"longitude":-73.6214,"state":"QC","stars":4,"latitude":45.4765,"cat":"French"},{"business_id":"EGsNTiWG7ZxMUrskp4-wfQ","categories":["French","Restaurants"],"city":"Montréal","review_count":3,"name":"Restaurant Miracle","neighborhoods":["Sud-Ouest"],"longitude":-73.5845,"state":"QC","stars":3,"latitude":45.4778,"cat":"French"},{"business_id":"jTLPWq1WIX36N556JOegkw","categories":["French","Restaurants"],"city":"Montréal","review_count":3,"name":"Chez Goutier","neighborhoods":["Plateau-Mont-Royal"],"longitude":-73.5732,"state":"QC","stars":2.5,"latitude":45.5094,"cat":"French"},{"business_id":"KiUkYoyyEJFfCzeHvd9TGg","categories":["French","Canadian (New)","Restaurants"],"city":"Montréal","review_count":15,"name":"Café Holt Renfrew","neighborhoods":["Villeray-Saint-Michel-Parc-Extension","Ahunstic-Cartierville"],"longitude":-73.6397,"state":"QC","stars":4,"latitude":45.5456,"cat":"French"},{"business_id":"hMrPStLkpaHjpo3Kr42yAQ","categories":["French","Restaurants"],"city":"Montréal","review_count":15,"name":"Narcisse Bistro","neighborhoods":["Ville-Marie"],"longitude":-73.5529,"state":"QC","stars":4,"latitude":45.506,"cat":"French"},{"business_id":"AisKSJwsP9a6bq_N7EiFZA","categories":["Wine Bars","Bars","Nightlife","French","Restaurants"],"city":"Montréal","review_count":332,"name":"Les Deux Gamins","neighborhoods":["Plateau-Mont-Royal"],"longitude":-73.5711,"state":"QC","stars":4,"latitude":45.5155,"cat":"French"},{"business_id":"lpD8DPFiQaig8FB-nlb8GA","categories":["French","Restaurants"],"city":"Montréal","review_count":18,"name":"Grenadine","neighborhoods":["Ville-Marie"],"longitude":-73.5664,"state":"QC","stars":4.5,"latitude":45.5135,"cat":"French"},{"business_id":"5ScVdNN99Gdw_lpBaO664A","categories":["French","Restaurants"],"city":"Montréal","review_count":3,"name":"Nuances","neighborhoods":[],"longitude":-73.5258,"state":"QC","stars":4.5,"latitude":45.5055,"cat":"French"},{"business_id":"RnGYvUf5vrOwxs0U26zRSg","categories":["American (Traditional)","Buffets","French","Restaurants"],"city":"Montréal","review_count":4,"name":"Buffet La Bonne Carte","neighborhoods":[],"longitude":-73.5258,"state":"QC","stars":3,"latitude":45.5055,"cat":"French"},{"business_id":"Vt7Kim12rQEbIQbZ0M8ZOQ","categories":["American (Traditional)","French","Canadian (New)","Restaurants"],"city":"Montréal","review_count":79,"name":"Vallier","neighborhoods":["Ville-Marie"],"longitude":-73.5578,"state":"QC","stars":3.5,"latitude":45.5009,"cat":"French"},{"business_id":"0lP8Y9-51l7LydplYtDfBg","categories":["Breakfast & Brunch","French","Restaurants"],"city":"Montréal","review_count":83,"name":"La Salle à Manger","neighborhoods":["Plateau-Mont-Royal"],"longitude":-73.5772,"state":"QC","stars":4,"latitude":45.5298,"cat":"French"},{"business_id":"fCnOvYRGMvC7hX8C-0e8ng","categories":["French","Restaurants"],"city":"Montréal","review_count":36,"name":"Bistro Le Valois","neighborhoods":["Mercier-Hochelaga-Maisonneuve"],"longitude":-73.5434,"state":"QC","stars":4,"latitude":45.5475,"cat":"French"},{"business_id":"1dprSfGrxNxgYiuYcmb3FQ","categories":["French","Restaurants"],"city":"Montréal","review_count":152,"name":"Liverpool House","neighborhoods":["Sud-Ouest"],"longitude":-73.5754,"state":"QC","stars":4,"latitude":45.483,"cat":"French"},{"business_id":"g1YWJ_GmCyZI1PIg40c41w","categories":["Gastropubs","French","Restaurants"],"city":"Montréal","review_count":27,"name":"Bar & Boeuf","neighborhoods":["Ville-Marie"],"longitude":-73.5596,"state":"QC","stars":4,"latitude":45.501,"cat":"French"},{"business_id":"ltpe8IBhCaNxkGWApq1hOw","categories":["Italian","French","Restaurants"],"city":"Montréal","review_count":70,"name":"Restaurant l'Academie","neighborhoods":["Ville-Marie"],"longitude":-73.5783,"state":"QC","stars":3.5,"latitude":45.4982,"cat":"French"},{"business_id":"1bPngA5zYQjTvt-qQ4xJqw","categories":["French","Restaurants"],"city":"Montréal","review_count":96,"name":"Le Local","neighborhoods":["Ville-Marie"],"longitude":-73.5579,"state":"QC","stars":4,"latitude":45.498,"cat":"French"},{"business_id":"62blpBD1S48zNWQ_onM73w","categories":["Breakfast & Brunch","French","Restaurants"],"city":"Montréal","review_count":66,"name":"Les Enfants Terribles","neighborhoods":["Outremont"],"longitude":-73.6092,"state":"QC","stars":3.5,"latitude":45.5199,"cat":"French"},{"business_id":"X6LAbArQuaaxsQgakPsWSg","categories":["French","Restaurants"],"city":"Montréal","review_count":65,"name":"Beaver Hall","neighborhoods":["Ville-Marie"],"longitude":-73.5649,"state":"QC","stars":4,"latitude":45.5025,"cat":"French"},{"business_id":"qURn2iGFc9lxHQO54mpfcA","categories":["French","Restaurants"],"city":"Montréal","review_count":3,"name":"Le 17eme","neighborhoods":["Plateau-Mont-Royal"],"longitude":-73.5716,"state":"QC","stars":2.5,"latitude":45.5142,"cat":"French"},{"business_id":"qXgmZOhM63hgOfJKmADR7g","categories":["French","Restaurants"],"city":"Montréal","review_count":10,"name":"Le St-Urbain","neighborhoods":["Ahunstic-Cartierville"],"longitude":-73.6658,"state":"QC","stars":3.5,"latitude":45.547,"cat":"French"},{"business_id":"sUydeg5qDuN_CSy6EFVaWQ","categories":["American (Traditional)","Southern","French","Restaurants"],"city":"Montréal","review_count":39,"name":"Kitchenette","neighborhoods":["Ville-Marie"],"longitude":-73.5523,"state":"QC","stars":4,"latitude":45.5189,"cat":"French"},{"business_id":"4V2q5I6VEH2CC5P6o1QYgw","categories":["French","Restaurants"],"city":"Montréal","review_count":41,"name":"Vertige","neighborhoods":["Plateau-Mont-Royal"],"longitude":-73.5745,"state":"QC","stars":4,"latitude":45.5223,"cat":"French"},{"business_id":"nx84GrKZNZmJRqyGeoef0g","categories":["French","Restaurants"],"city":"Montréal","review_count":16,"name":"Osco Restaurant","neighborhoods":["Ville-Marie"],"longitude":-73.5606,"state":"QC","stars":3.5,"latitude":45.5029,"cat":"French"},{"business_id":"UGufrrfAjzIjzd5W73NLFA","categories":["French","Restaurants"],"city":"Montréal","review_count":4,"name":"L'Inconnu","neighborhoods":["Plateau-Mont-Royal"],"longitude":-73.5703,"state":"QC","stars":4.5,"latitude":45.5219,"cat":"French"},{"business_id":"J31w7njKw9OuGdD9R2GXBg","categories":["French","Restaurants"],"city":"Montréal","review_count":12,"name":"Les Filles du Roy","neighborhoods":["Ville-Marie"],"longitude":-73.5526,"state":"QC","stars":4,"latitude":45.5109,"cat":"French"},{"business_id":"atVYOiGLCf5W5GiwqHQl_A","categories":["French","Restaurants"],"city":"Montréal","review_count":97,"name":"O'Thym","neighborhoods":["Ville-Marie"],"longitude":-73.5581,"state":"QC","stars":4.5,"latitude":45.5184,"cat":"French"},{"business_id":"YsnzNVx1I4zkUhd1RcK4qw","categories":["French","Restaurants"],"city":"Montréal","review_count":50,"name":"La Fabrique","neighborhoods":["Plateau-Mont-Royal"],"longitude":-73.5696,"state":"QC","stars":4,"latitude":45.518,"cat":"French"},{"business_id":"ZCvIIuB5M-e7yXjjgVWQug","categories":["French","Restaurants"],"city":"Montréal","review_count":80,"name":"Le Quartier Général","neighborhoods":["Plateau-Mont-Royal"],"longitude":-73.5815,"state":"QC","stars":4.5,"latitude":45.5309,"cat":"French"},{"business_id":"ky20IjFHZeHuyp1BA0bVbw","categories":["Mediterranean","French","Restaurants"],"city":"Montréal","review_count":19,"name":"DNA Restaurant","neighborhoods":["Ville-Marie"],"longitude":-73.5539,"state":"QC","stars":4,"latitude":45.4998,"cat":"French"},{"business_id":"3LEeSYDzA5_5pm2w3KysTg","categories":["French","Restaurants"],"city":"Montréal","review_count":15,"name":"Aix Cuisine du Terroir","neighborhoods":["Ville-Marie"],"longitude":-73.5578,"state":"QC","stars":3.5,"latitude":45.5055,"cat":"French"},{"business_id":"OuV3m6oDo5_mIIkLpmIapQ","categories":["French","Restaurants"],"city":"Montréal","review_count":10,"name":"Le Beaver Club","neighborhoods":["Ville-Marie"],"longitude":-73.5676,"state":"QC","stars":4.5,"latitude":45.5013,"cat":"French"},{"business_id":"NB_eDJ3_91JBlBN7CSNvwA","categories":["Wine Bars","Bars","Nightlife","French","Restaurants"],"city":"Montréal","review_count":38,"name":"Chez Victoire","neighborhoods":["Plateau-Mont-Royal"],"longitude":-73.5765,"state":"QC","stars":4,"latitude":45.5309,"cat":"French"},{"business_id":"Z82YJ9Gay3687DabyFf2-w","categories":["French","Restaurants"],"city":"Montréal","review_count":7,"name":"La Montée de Lait","neighborhoods":["Plateau-Mont-Royal"],"longitude":-73.5941,"state":"QC","stars":4,"latitude":45.5238,"cat":"French"},{"business_id":"UB-me0Pr5JkNFg1ijyMVxg","categories":["French","Restaurants"],"city":"Montréal","review_count":25,"name":"Plein Sud","neighborhoods":["Plateau-Mont-Royal"],"longitude":-73.5843,"state":"QC","stars":4.5,"latitude":45.5223,"cat":"French"},{"business_id":"Dp2d1KeZmTF9W6OAKQUfoA","categories":["French","Restaurants"],"city":"Montréal","review_count":4,"name":"À Table","neighborhoods":["Ahunstic-Cartierville"],"longitude":-73.666,"state":"QC","stars":4.5,"latitude":45.5466,"cat":"French"},{"business_id":"LX4goUHAbfFFhuiYptBHZw","categories":["French","Restaurants"],"city":"Montréal","review_count":45,"name":"La Sauvagine","neighborhoods":["Ville-Marie"],"longitude":-73.5528,"state":"QC","stars":2.5,"latitude":45.5069,"cat":"French"},{"business_id":"zgwuLVCLutR6tVv-nHIhzQ","categories":["Food","Coffee & Tea","French","Restaurants"],"city":"Montréal","review_count":5,"name":"Green Traiteur & Cafe","neighborhoods":["Ville-Marie"],"longitude":-73.5625,"state":"QC","stars":5,"latitude":45.5028,"cat":"French"},{"business_id":"DoKUOUwAsWrlRY6ehzQV_w","categories":["French","Restaurants"],"city":"Montréal","review_count":109,"name":"Brasserie t","neighborhoods":["Ville-Marie"],"longitude":-73.5668,"state":"QC","stars":3.5,"latitude":45.5076,"cat":"French"},{"business_id":"N0euXkkYkOSrrckohlQkUQ","categories":["Wine Bars","Bars","Nightlife","French","Restaurants"],"city":"Montréal","review_count":48,"name":"Accords","neighborhoods":["Ville-Marie"],"longitude":-73.5576,"state":"QC","stars":4,"latitude":45.5036,"cat":"French"},{"business_id":"2hIKRM-dQlQBzTIscqE6qw","categories":["Breakfast & Brunch","French","Restaurants"],"city":"Montréal","review_count":23,"name":"La Cervoise","neighborhoods":["Mercier-Hochelaga-Maisonneuve"],"longitude":-73.5418,"state":"QC","stars":4,"latitude":45.5492,"cat":"French"},{"business_id":"ynKz0tvG0ctSZB8qX08MbQ","categories":["French","Restaurants"],"city":"Montréal","review_count":11,"name":"La Coupole","neighborhoods":["Ville-Marie"],"longitude":-73.5731,"state":"QC","stars":2.5,"latitude":45.4988,"cat":"French"},{"business_id":"7Uouj_xLTexDpBC0dD2PvQ","categories":["French","Restaurants"],"city":"Montréal","review_count":10,"name":"Bistro l'Entrepont","neighborhoods":["Plateau-Mont-Royal"],"longitude":-73.5865,"state":"QC","stars":4,"latitude":45.523,"cat":"French"},{"business_id":"0h4Acu2I_OekwGL79lQWnA","categories":["French","Restaurants"],"city":"Montréal","review_count":17,"name":"Le Square","neighborhoods":["Plateau-Mont-Royal"],"longitude":-73.5712,"state":"QC","stars":3,"latitude":45.5154,"cat":"French"},{"business_id":"xrZXfIzFEHxhEiQzvOlNNQ","categories":["French","Restaurants"],"city":"Montréal","review_count":71,"name":"Les 400 Coups","neighborhoods":["Ville-Marie"],"longitude":-73.5524,"state":"QC","stars":4,"latitude":45.5102,"cat":"French"},{"business_id":"a1fldZ6mOoQd0Cyem0ioIw","categories":["Steakhouses","French","Restaurants"],"city":"Montréal","review_count":21,"name":"Steak Frites","neighborhoods":["Plateau-Mont-Royal"],"longitude":-73.5778,"state":"QC","stars":3.5,"latitude":45.5217,"cat":"French"},{"business_id":"yfHJe8yhZLKH-pkbU7ErOg","categories":["French","Restaurants"],"city":"Montréal","review_count":20,"name":"Bistro Lustucru","neighborhoods":["Plateau-Mont-Royal"],"longitude":-73.5969,"state":"QC","stars":3.5,"latitude":45.5203,"cat":"French"},{"business_id":"LKsPRVP18GPXeH8Ufs7CMw","categories":["French","Restaurants"],"city":"Montréal","review_count":20,"name":"Chez Chose","neighborhoods":["Plateau-Mont-Royal"],"longitude":-73.5831,"state":"QC","stars":4.5,"latitude":45.5239,"cat":"French"},{"business_id":"1LssNZj0_KKTLwduP0ZFEg","categories":["French","Restaurants"],"city":"Montréal","review_count":22,"name":"Bistro Florin","neighborhoods":["Ville-Marie"],"longitude":-73.5578,"state":"QC","stars":4,"latitude":45.5177,"cat":"French"},{"business_id":"gd_Lm6AA_OLfr9qzHS_2YQ","categories":["French","Restaurants"],"city":"Montréal","review_count":4,"name":"Le Marly","neighborhoods":["Ville-Marie"],"longitude":-73.5648,"state":"QC","stars":4,"latitude":45.5024,"cat":"French"},{"business_id":"Yokc44YAGaj_pnGtsbDXEQ","categories":["Caterers","Event Planning & Services","French","Restaurants"],"city":"Montréal","review_count":4,"name":"Brigade Volante","neighborhoods":["Sud-Ouest","Ville-Marie"],"longitude":-73.5659,"state":"QC","stars":3.5,"latitude":45.4915,"cat":"French"},{"business_id":"z2nZ6iM8v8jr_BUERdiLWA","categories":["Steakhouses","French","Restaurants"],"city":"Montréal","review_count":71,"name":"L'Entrecôte Saint-Jean","neighborhoods":["Ville-Marie"],"longitude":-73.5752,"state":"QC","stars":4,"latitude":45.501,"cat":"French"},{"business_id":"K3BytBBhK5PLmDP0sE8Pkg","categories":["Canadian (New)","French","Restaurants"],"city":"Montréal","review_count":6,"name":"Renard Artisan Bistro","neighborhoods":["Plateau-Mont-Royal"],"longitude":-73.5834,"state":"QC","stars":4,"latitude":45.5233,"cat":"French"},{"business_id":"433QNeRTz3-cMcAnTYDoYw","categories":["Breakfast & Brunch","Cafes","French","Restaurants"],"city":"Montréal","review_count":41,"name":"Engaufrez-vous","neighborhoods":["Plateau-Mont-Royal"],"longitude":-73.5815,"state":"QC","stars":4.5,"latitude":45.5182,"cat":"French"},{"business_id":"a6Y7l1GRJxlX7_Yavnh8bA","categories":["Creperies","French","Restaurants"],"city":"Montréal","review_count":30,"name":"La Crêpe 2 Go","neighborhoods":["Plateau-Mont-Royal"],"longitude":-73.5713,"state":"QC","stars":4.5,"latitude":45.5084,"cat":"French"},{"business_id":"7P6fSrKlh24rQ8ta3L0sOw","categories":["French","Restaurants"],"city":"Montréal","review_count":3,"name":"Le Castillon","neighborhoods":["Ville-Marie"],"longitude":-73.5661,"state":"QC","stars":3,"latitude":45.4994,"cat":"French"},{"business_id":"GVkj5jIasovqFrx442-NcA","categories":["French","Restaurants"],"city":"Montréal","review_count":34,"name":"Bistro L'Aromate","neighborhoods":["Ville-Marie"],"longitude":-73.5737,"state":"QC","stars":3,"latitude":45.5017,"cat":"French"},{"business_id":"V7JvMqUCYP0IN77Immb_0g","categories":["French","Restaurants"],"city":"Montréal","review_count":6,"name":"Moutons Noirs","neighborhoods":["Plateau-Mont-Royal"],"longitude":-73.5774,"state":"QC","stars":4,"latitude":45.5215,"cat":"French"},{"business_id":"zff9T01XedPZxUPPBjJG_w","categories":["French","Restaurants"],"city":"Montréal","review_count":3,"name":"La Salamandre","neighborhoods":["Plateau-Mont-Royal"],"longitude":-73.5764,"state":"QC","stars":5,"latitude":45.5276,"cat":"French"},{"business_id":"zPvPaG9IMaWY6xhFTwOL3Q","categories":["French","Restaurants"],"city":"Montréal","review_count":7,"name":"Emporte Pièce","neighborhoods":["Plateau-Mont-Royal"],"longitude":-73.5862,"state":"QC","stars":4.5,"latitude":45.5258,"cat":"French"},{"business_id":"GNBWSr7A1QVi3iq_EeSKAQ","categories":["Gastropubs","French","Restaurants"],"city":"Montréal","review_count":6,"name":"Baxo Cuisine Bar","neighborhoods":["Ville-Marie"],"longitude":-73.5518,"state":"QC","stars":3.5,"latitude":45.5092,"cat":"French"},{"business_id":"5Pgaus70eC1bJHSwzzjPng","categories":["French","Restaurants"],"city":"Montréal","review_count":3,"name":"Tablée Vin","neighborhoods":["Ville-Marie"],"longitude":-73.561,"state":"QC","stars":3.5,"latitude":45.5234,"cat":"French"},{"business_id":"Qj94MF3oFgSsiPyBPArpBQ","categories":["Canadian (New)","French","Restaurants"],"city":"Montréal","review_count":13,"name":"Sinclair","neighborhoods":["Ville-Marie"],"longitude":-73.555,"state":"QC","stars":3,"latitude":45.5045,"cat":"French"},{"business_id":"3XpNWbuMt1mvMNRzMsBC-Q","categories":["French","Restaurants"],"city":"Montréal","review_count":9,"name":"Le Chien Rose","neighborhoods":["Ahunstic-Cartierville"],"longitude":-73.6669,"state":"QC","stars":4,"latitude":45.545,"cat":"French"},{"business_id":"8KeuNYJNbKjnNTTbx_L15Q","categories":["French","Restaurants"],"city":"Montréal","review_count":30,"name":"Le Smoking Vallée","neighborhoods":["Sud-Ouest"],"longitude":-73.5867,"state":"QC","stars":3,"latitude":45.4751,"cat":"French"},{"business_id":"uCVH3O-qvsuLfGLvSz9-dQ","categories":["French","Restaurants"],"city":"Montréal","review_count":21,"name":"Les Canailles","neighborhoods":["Mercier-Hochelaga-Maisonneuve"],"longitude":-73.5434,"state":"QC","stars":4,"latitude":45.5475,"cat":"French"},{"business_id":"ela9Je2E3cvqKKA8n9jZMg","categories":["Nightlife","Breakfast & Brunch","Bars","French","Restaurants"],"city":"Montréal","review_count":33,"name":"Restaurant Renoir","neighborhoods":["Ville-Marie"],"longitude":-73.5773,"state":"QC","stars":4,"latitude":45.5015,"cat":"French"},{"business_id":"Ws29o9-d6Nr585DEVPZm-A","categories":["Bars","Seafood","French","Wine Bars","Nightlife","Restaurants"],"city":"Montréal","review_count":12,"name":"Les Tontons Flingueurs","neighborhoods":["Côte-des-Neiges"],"longitude":-73.6207,"state":"QC","stars":3,"latitude":45.4955,"cat":"French"},{"business_id":"U_zxW-c_2NZajkUrQMcBkQ","categories":["French","Restaurants"],"city":"Montréal","review_count":4,"name":"Ficelle Vin, Bulle & Foie Gras","neighborhoods":["Plateau-Mont-Royal"],"longitude":-73.5834,"state":"QC","stars":3,"latitude":45.5242,"cat":"French"},{"business_id":"FM2Co4ni-1A_T-fHhBOJ0Q","categories":["Breakfast & Brunch","French","Restaurants"],"city":"Montréal","review_count":39,"name":"Bistro Tôt ou Tard","neighborhoods":["Plateau-Mont-Royal"],"longitude":-73.5664,"state":"QC","stars":4,"latitude":45.5216,"cat":"French"},{"business_id":"55ZqIzmhVHe5B9t4dbIaMA","categories":["Breakfast & Brunch","French","Restaurants"],"city":"Montréal","review_count":13,"name":"Cornichon","neighborhoods":["Plateau-Mont-Royal"],"longitude":-73.5777,"state":"QC","stars":3.5,"latitude":45.5298,"cat":"French"},{"business_id":"EIRWO8LORufGJL5qHK6yIA","categories":["Breakfast & Brunch","French","Restaurants"],"city":"Montréal","review_count":85,"name":"Maison Boulud","neighborhoods":["Ville-Marie"],"longitude":-73.5779,"state":"QC","stars":4.5,"latitude":45.5001,"cat":"French"},{"business_id":"9U7xp1MGuOVOBzw3N9AOVA","categories":["French","Restaurants"],"city":"Montréal","review_count":24,"name":"Bistro Duo D","neighborhoods":["Ville-Marie"],"longitude":-73.5656,"state":"QC","stars":4.5,"latitude":45.492,"cat":"French"},{"business_id":"tAkYKScldQakfbGBKwKzsw","categories":["French","Restaurants"],"city":"Montréal","review_count":11,"name":"Restaurant Machiavelli","neighborhoods":["Sud-Ouest"],"longitude":-73.569,"state":"QC","stars":3.5,"latitude":45.4788,"cat":"French"},{"business_id":"hbzFgwAaoLpJHCeBPp8njw","categories":["French","Restaurants"],"city":"Montréal","review_count":17,"name":"Wellington","neighborhoods":["Verdun"],"longitude":-73.5665,"state":"QC","stars":4,"latitude":45.4676,"cat":"French"},{"business_id":"iK-hU7pUN3jEhRL7QaI2lg","categories":["French","Restaurants"],"city":"Montréal","review_count":4,"name":"Restaurant L'Ambroisie","neighborhoods":["Sud-Ouest"],"longitude":-73.582,"state":"QC","stars":3.5,"latitude":45.4737,"cat":"French"},{"business_id":"dN_JiMMdNn-q-7ViouYcGQ","categories":["Modern European","French","Restaurants"],"city":"Montréal","review_count":3,"name":"Le Contemporain","neighborhoods":["Ville-Marie"],"longitude":-73.5668,"state":"QC","stars":4,"latitude":45.5078,"cat":"French"},{"business_id":"NMKnRYoibGWYgBjklfE2xw","categories":["French","Restaurants"],"city":"Montréal","review_count":3,"name":"La Presqu'ile","neighborhoods":["Rosemont-La Petite-Patrie"],"longitude":-73.5745,"state":"QC","stars":3,"latitude":45.5489,"cat":"French"},{"business_id":"guCjJhxjlajTJ0rNhFp98Q","categories":["French","Restaurants"],"city":"Montréal","review_count":7,"name":"Bistro Chez Roger","neighborhoods":["Rosemont-La Petite-Patrie"],"longitude":-73.5933,"state":"QC","stars":3.5,"latitude":45.5469,"cat":"French"},{"business_id":"Tx2Hy9Zp6H1_gLOhdg8_QA","categories":["Gastropubs","French","Restaurants"],"city":"Montréal","review_count":7,"name":"Le Bistro Balmoral","neighborhoods":["Ville-Marie"],"longitude":-73.5667,"state":"QC","stars":3,"latitude":45.5068,"cat":"French"},{"business_id":"30vqUczADsjH4g5jbpSplw","categories":["French","Restaurants"],"city":"Montréal","review_count":26,"name":"EVOO","neighborhoods":["Sud-Ouest"],"longitude":-73.5792,"state":"QC","stars":4,"latitude":45.4805,"cat":"French"},{"business_id":"psdS0DZFS4dGsYTxACzx7Q","categories":["Seafood","Steakhouses","French","Restaurants"],"city":"Montréal","review_count":66,"name":"Grinder","neighborhoods":["Sud-Ouest"],"longitude":-73.5681,"state":"QC","stars":3,"latitude":45.4889,"cat":"French"},{"business_id":"m4TKhf04E8yyVoEzfWKr2Q","categories":["French","Restaurants"],"city":"Montréal","review_count":3,"name":"Boulangerie La Niçoise","neighborhoods":["Sud-Ouest"],"longitude":-73.5749,"state":"QC","stars":4.5,"latitude":45.4831,"cat":"French"},{"business_id":"u3bQ3Ckde3iJIoSMn8U4Ag","categories":["French","Restaurants"],"city":"Montréal","review_count":3,"name":"L'Entiché","neighborhoods":["Ville-Marie"],"longitude":-73.5663,"state":"QC","stars":4,"latitude":45.5163,"cat":"French"},{"business_id":"lqoMK84uSltovVbhOTkfSQ","categories":["French","Restaurants"],"city":"Montréal","review_count":3,"name":"Les Temps Nouveaux","neighborhoods":["Ville-Marie"],"longitude":-73.5603,"state":"QC","stars":4,"latitude":45.5164,"cat":"French"},{"business_id":"Q3FnqSak00hiTQB1bO2uTQ","categories":["Seafood","Steakhouses","French","Restaurants"],"city":"Montréal","review_count":44,"name":"Gus","neighborhoods":["Rosemont-La Petite-Patrie"],"longitude":-73.6081,"state":"QC","stars":4.5,"latitude":45.5306,"cat":"French"},{"business_id":"243uuzEhSnmGeBYtXflv6w","categories":["French","Restaurants"],"city":"Montréal","review_count":20,"name":"La Famille","neighborhoods":["Plateau-Mont-Royal"],"longitude":-73.5862,"state":"QC","stars":4.5,"latitude":45.5258,"cat":"French"},{"business_id":"2Qr-ge9hTixYpI9xnXDSiw","categories":["Tapas Bars","French","Restaurants"],"city":"Montréal","review_count":8,"name":"Gueule de Bois Chez M & Cartier","neighborhoods":["Mercier-Hochelaga-Maisonneuve"],"longitude":-73.5463,"state":"QC","stars":4,"latitude":45.5428,"cat":"French"},{"business_id":"rsw-dn9xJGsfG7DjL-IyXQ","categories":["French","Restaurants"],"city":"Montréal","review_count":16,"name":"Dans le Noir","neighborhoods":["Ville-Marie"],"longitude":-73.5655,"state":"QC","stars":4,"latitude":45.5079,"cat":"French"},{"business_id":"kQSZ6yn2VuPsMfoq93KYbA","categories":["French","Restaurants"],"city":"Montréal","review_count":3,"name":"French Connection Montréal","neighborhoods":["Plateau-Mont-Royal"],"longitude":-73.5893,"state":"QC","stars":4.5,"latitude":45.5215,"cat":"French"},{"business_id":"6Tv28Sx8wKRku3v_WtSLiA","categories":["Breakfast & Brunch","Italian","French","Restaurants"],"city":"Montréal","review_count":24,"name":"La Récolte Espace Local","neighborhoods":["Rosemont-La Petite-Patrie"],"longitude":-73.6103,"state":"QC","stars":4.5,"latitude":45.5388,"cat":"French"},{"business_id":"Yvz3LmCCgMWS0NnQTvNS-w","categories":["French","Restaurants"],"city":"Montréal","review_count":3,"name":"La Gargotte des Antiquaires","neighborhoods":["Lachine"],"longitude":-73.6779,"state":"QC","stars":3,"latitude":45.435,"cat":"French"},{"business_id":"STnVH08sXTnYLQnFDpemVA","categories":["Sandwiches","French","Restaurants"],"city":"Montréal","review_count":31,"name":"Terrasse Nelligan","neighborhoods":["Ville-Marie"],"longitude":-73.5545,"state":"QC","stars":3.5,"latitude":45.5041,"cat":"French"},{"business_id":"rB0TShTW9fhGiSTPkXFO2A","categories":["Breakfast & Brunch","Gastropubs","French","Restaurants"],"city":"Montréal","review_count":29,"name":"Le H4C","neighborhoods":["Sud-Ouest"],"longitude":-73.5859,"state":"QC","stars":4,"latitude":45.4774,"cat":"French"},{"business_id":"Pw6EZXm-xFehRDGItBVopw","categories":["Breakfast & Brunch","French","Restaurants"],"city":"Montreal","review_count":40,"name":"La Societe -Montreal","neighborhoods":["Ville-Marie"],"longitude":-73.5755,"state":"QC","stars":3.5,"latitude":45.4981,"cat":"French"},{"business_id":"4eU6UKxTk4sTeI7ywRx16Q","categories":["Food","French","Restaurants"],"city":"Montréal","review_count":4,"name":"Les Coudes Sur La Table","neighborhoods":["Ville-Marie"],"longitude":-73.5484,"state":"QC","stars":5,"latitude":45.5271,"cat":"French"},{"business_id":"BGEnWjW31rtUluc2MAvAHA","categories":["Tapas/Small Plates","French","Restaurants"],"city":"Montréal","review_count":24,"name":"Gazette Restaurant","neighborhoods":["Ville-Marie"],"longitude":-73.5601,"state":"QC","stars":4,"latitude":45.5034,"cat":"French"},{"business_id":"PvuNuoiI9Vsx_fcfCw8HQw","categories":["French","Restaurants"],"city":"Montréal","review_count":8,"name":"Racines","neighborhoods":["Ville-Marie"],"longitude":-73.5584,"state":"QC","stars":4.5,"latitude":45.5003,"cat":"French"},{"business_id":"TuFvlo6E8dilLwWiojdCSQ","categories":["French","Restaurants"],"city":"Montréal","review_count":10,"name":"Lannes Et Pacifiques","neighborhoods":["Rosemont-La Petite-Patrie"],"longitude":-73.6069,"state":"QC","stars":4,"latitude":45.5319,"cat":"French"},{"business_id":"crZy3ApgB6RsDVU9TwMNwQ","categories":["Spanish","French","Restaurants"],"city":"Montréal","review_count":3,"name":"Chez Carl Tapas Et Bar a Vin","neighborhoods":["Verdun"],"longitude":-73.5412,"state":"QC","stars":4,"latitude":45.4669,"cat":"French"},{"business_id":"urn77qGjsRF3lGd6GdQu7A","categories":["French","Canadian (New)","Restaurants"],"city":"Montréal","review_count":18,"name":"Etat-Major","neighborhoods":["Mercier-Hochelaga-Maisonneuve"],"longitude":-73.5418,"state":"QC","stars":4,"latitude":45.5495,"cat":"French"},{"business_id":"YVjVFDZ14WLybT7L7qjLbg","categories":["French","Restaurants"],"city":"Montréal","review_count":14,"name":"La Maison du Magret","neighborhoods":["Ville-Marie"],"longitude":-73.5586,"state":"QC","stars":4,"latitude":45.5051,"cat":"French"},{"business_id":"HjzjfeJVTwRa56Boatbe_w","categories":["Italian","French","Canadian (New)","Restaurants"],"city":"Montréal","review_count":63,"name":"Le Serpent","neighborhoods":["Ville-Marie"],"longitude":-73.5571,"state":"QC","stars":4.5,"latitude":45.4976,"cat":"French"},{"business_id":"YsqqUanJHubI8_CKJoMJmA","categories":["Bars","French","Pubs","Nightlife","Canadian (New)","Restaurants"],"city":"Montréal","review_count":10,"name":"Brasserie Bernard","neighborhoods":["Outremont"],"longitude":-73.609,"state":"QC","stars":3.5,"latitude":45.5201,"cat":"French"},{"business_id":"H6zB6IjGeC2LLg0XOVnoMQ","categories":["Bars","Tapas Bars","French","Wine Bars","Nightlife","Restaurants"],"city":"Montréal","review_count":3,"name":"Baravin","neighborhoods":["Ville-Marie"],"longitude":-73.5644,"state":"QC","stars":4.5,"latitude":45.5157,"cat":"French"},{"business_id":"xyw_YQwYDZRdUBEnVRcILg","categories":["Italian","Mediterranean","French","Restaurants"],"city":"Montréal","review_count":3,"name":"Restaurant Deuxlux","neighborhoods":["Rosemont-La Petite-Patrie"],"longitude":-73.6072,"state":"QC","stars":2.5,"latitude":45.5372,"cat":"French"},{"business_id":"2SOI6fHQaLt_N1p6XERu_w","categories":["Cafes","French","Restaurants"],"city":"Montréal","review_count":3,"name":"Flammkoeur et Parigot","neighborhoods":["Ahunstic-Cartierville"],"longitude":-73.6677,"state":"QC","stars":4.5,"latitude":45.544,"cat":"French"},{"business_id":"Rv4qCLFJpkgrnVE1uxnnXA","categories":["Bars","French","Pubs","Nightlife","Canadian (New)","Restaurants"],"city":"Montréal","review_count":18,"name":"Balconville","neighborhoods":["Verdun"],"longitude":-73.5675,"state":"QC","stars":4,"latitude":45.4571,"cat":"French"},{"business_id":"Qge4R8L61c4_RGd8CPhekA","categories":["French","Canadian (New)","Restaurants"],"city":"Montréal","review_count":183,"name":"Le Robin Square","neighborhoods":["Ville-Marie"],"longitude":-73.5561,"state":"QC","stars":5,"latitude":45.5063,"cat":"French"},{"business_id":"dFaY3ucGB8xW6Sdtm4a1Mg","categories":["Arts & Entertainment","Music Venues","Bars","French","Nightlife","Restaurants"],"city":"Montréal","review_count":8,"name":"Le Saint-Amable","neighborhoods":["Ville-Marie"],"longitude":-73.5528,"state":"QC","stars":1.5,"latitude":45.5075,"cat":"French"},{"business_id":"GJKeYVxt8rPmApzr4Qq5qw","categories":["Comfort Food","French","Restaurants"],"city":"Montréal","review_count":10,"name":"Chez Chose","neighborhoods":["Rosemont-La Petite-Patrie"],"longitude":-73.6029,"state":"QC","stars":4.5,"latitude":45.547,"cat":"French"},{"business_id":"ABmevO0IxajAW21WqwtPmQ","categories":["Sushi Bars","French","Restaurants"],"city":"Montréal","review_count":14,"name":"Sa-Fran Bistro & Sushi Bar","neighborhoods":["Plateau-Mont-Royal"],"longitude":-73.5752,"state":"QC","stars":4.5,"latitude":45.5206,"cat":"French"},{"business_id":"i2kA4h7LEZI-WyLRgcaXTg","categories":["Breakfast & Brunch","French","Restaurants"],"city":"Montréal","review_count":32,"name":"Ma'tine","neighborhoods":["Ville-Marie"],"longitude":-73.5567,"state":"QC","stars":4,"latitude":45.5201,"cat":"French"},{"business_id":"dSy1YcdI01okZJHV2iLUbA","categories":["French","Canadian (New)","Restaurants"],"city":"Montréal","review_count":13,"name":"Laurea","neighborhoods":["Outremont"],"longitude":-73.5963,"state":"QC","stars":4,"latitude":45.5191,"cat":"French"},{"business_id":"sib6xgvhao3xTfynFpuNwA","categories":["Breakfast & Brunch","Creperies","French","Restaurants"],"city":"Montréal","review_count":32,"name":"Pause & Vous","neighborhoods":["Plateau-Mont-Royal"],"longitude":-73.5851,"state":"QC","stars":4.5,"latitude":45.5215,"cat":"French"},{"business_id":"1ZsDRVBZDllEp1FuduAqDQ","categories":["Breakfast & Brunch","French","Restaurants"],"city":"Montréal","review_count":11,"name":"Restaurant Cirkus","neighborhoods":["Plateau-Mont-Royal"],"longitude":-73.583,"state":"QC","stars":4,"latitude":45.5344,"cat":"French"},{"business_id":"oZ0GvCqyCfFpCxGfzJgkYw","categories":["French","Restaurants"],"city":"Montréal","review_count":19,"name":"Wilfrid sur Laurier","neighborhoods":["Plateau-Mont-Royal"],"longitude":-73.595,"state":"QC","stars":4,"latitude":45.5206,"cat":"French"},{"business_id":"PVTLy2sh_TtkvlZZbxvvAQ","categories":["French","Restaurants"],"city":"Montréal","review_count":8,"name":"Comptoir Lyonnais","neighborhoods":["Ville-Marie"],"longitude":-73.5522,"state":"QC","stars":4,"latitude":45.5193,"cat":"French"},{"business_id":"hKjw38ynK4JeAbhPTtpXlA","categories":["Bars","Breakfast & Brunch","French","Cocktail Bars","Nightlife","Restaurants"],"city":"Montréal","review_count":4,"name":"Les Cocottes","neighborhoods":["Rosemont-La Petite-Patrie"],"longitude":-73.6079,"state":"QC","stars":4,"latitude":45.531,"cat":"French"},{"business_id":"kVASS_YSFxUPpAl3lEfqOw","categories":["Restaurants","French","Italian"],"city":"Montréal","review_count":6,"name":"Il Bazzali","neighborhoods":["Rosemont-La Petite-Patrie"],"longitude":-73.6062,"state":"QC","stars":5,"latitude":45.5328,"cat":"French"},{"business_id":"bIr-tRqiHbzJcx--LzEQLQ","categories":["Breakfast & Brunch","French","Restaurants"],"city":"Montréal","review_count":5,"name":"Les Beaux Frères sur Beaubien","neighborhoods":["Rosemont-La Petite-Patrie"],"longitude":-73.5909,"state":"QC","stars":3.5,"latitude":45.5493,"cat":"French"},{"business_id":"i7KztjtUKNS7rK5AQi-i7g","categories":["Brasseries","Breakfast & Brunch","French","Restaurants"],"city":"Montréal","review_count":11,"name":"Bistro l'Évidence","neighborhoods":["Plateau-Mont-Royal"],"longitude":-73.5729,"state":"QC","stars":4,"latitude":45.5196,"cat":"French"},{"business_id":"Iw_UjRs6wyfdTnFzude6RQ","categories":["French","Restaurants"],"city":"Montréal","review_count":11,"name":"Le Chat Noir","neighborhoods":["Ville-Marie"],"longitude":-73.5562,"state":"QC","stars":3.5,"latitude":45.5057,"cat":"French"},{"business_id":"oRdXlz5pAcGUJ4snYzUbAw","categories":["French","Restaurants"],"city":"Montréal","review_count":13,"name":"Chambre à Part","neighborhoods":["Plateau-Mont-Royal"],"longitude":-73.5697,"state":"QC","stars":4.5,"latitude":45.518,"cat":"French"},{"business_id":"hKN3IRTAPi9BK3SNOdp1wA","categories":["French","Restaurants"],"city":"Montréal","review_count":9,"name":"Accords Le Bistro","neighborhoods":["Ville-Marie"],"longitude":-73.5634,"state":"QC","stars":4,"latitude":45.5101,"cat":"French"},{"business_id":"GYM-DOzbIIvJ9gwFK4c_ew","categories":["Bars","Nightlife","French","Restaurants"],"city":"Montréal","review_count":3,"name":"Lapin Blanc","neighborhoods":["Mercier-Hochelaga-Maisonneuve"],"longitude":-73.533,"state":"QC","stars":3.5,"latitude":45.5523,"cat":"French"},{"business_id":"c9-zh9b1V-wvxFgicsT7-Q","categories":["Modern European","French","Restaurants"],"city":"Montréal","review_count":20,"name":"Jellyfish","neighborhoods":["Ville-Marie"],"longitude":-73.5543,"state":"QC","stars":4,"latitude":45.4989,"cat":"French"},{"business_id":"gaSJOvE_sb6cNPEhSu5OZA","categories":["French","Restaurants"],"city":"Montréal","review_count":11,"name":"Candide","neighborhoods":["Sud-Ouest","Ville-Marie"],"longitude":-73.5693,"state":"QC","stars":4,"latitude":45.4892,"cat":"French"},{"business_id":"8GHoQ972E2bo8rQtebx39g","categories":["French","Restaurants"],"city":"Montréal","review_count":6,"name":"La Tannerie","neighborhoods":["Mercier-Hochelaga-Maisonneuve"],"longitude":-73.5402,"state":"QC","stars":4.5,"latitude":45.552,"cat":"French"},{"business_id":"KASA3l_6lfwQod7lYn50fg","categories":["French","Restaurants"],"city":"Montréal","review_count":6,"name":"Le Passé Composé","neighborhoods":["Ville-Marie"],"longitude":-73.5565,"state":"QC","stars":4,"latitude":45.5201,"cat":"French"},{"business_id":"Env21pieyFD60kaC0xbmcg","categories":["Restaurants","Italian"],"city":"Montréal","review_count":3,"name":"Restaurant Pescara Pineta","neighborhoods":["Mercier-Hochelaga-Maisonneuve"],"longitude":-73.5418,"state":"QC","stars":2.5,"latitude":45.5841,"cat":"Italian"},{"business_id":"dIcc2Z7m-JcHHLxwCuyfug","categories":["Restaurants","Sushi Bars","Italian"],"city":"Montréal","review_count":11,"name":"Restaurant Prima Luna","neighborhoods":["Anjou"],"longitude":-73.5942,"state":"QC","stars":4,"latitude":45.6172,"cat":"Italian"},{"business_id":"-bfARaSSodNvJsh4jkB78w","categories":["Restaurants","French","Italian"],"city":"Montréal","review_count":3,"name":"Pacini","neighborhoods":["Mercier-Hochelaga-Maisonneuve"],"longitude":-73.5438,"state":"QC","stars":2.5,"latitude":45.5823,"cat":"Italian"},{"business_id":"QyDYdEVaBw2dcZXu1-4wCQ","categories":["Italian","Fast Food","Pizza","Restaurants"],"city":"Montreal-Nord","review_count":6,"name":"Da Bologna","neighborhoods":["Montréal-Nord"],"longitude":-73.6246,"state":"QC","stars":4.5,"latitude":45.6002,"cat":"Italian"},{"business_id":"PHRBzNoeIqQCTRLP5PvpZg","categories":["Restaurants","Pizza","Italian"],"city":"Montréal","review_count":18,"name":"Ristorante Corneli","neighborhoods":["Rosemont-La Petite-Patrie"],"longitude":-73.6125,"state":"QC","stars":3.5,"latitude":45.5321,"cat":"Italian"},{"business_id":"xwZuGqSiPcyMlU6PEWQK9Q","categories":["Restaurants","Italian"],"city":"Montréal","review_count":6,"name":"Vinnie Gambini","neighborhoods":["Mercier-Hochelaga-Maisonneuve"],"longitude":-73.5485,"state":"QC","stars":3,"latitude":45.5726,"cat":"Italian"},{"business_id":"J_MqT6L5OlwlB_33famyyA","categories":["Restaurants","Italian"],"city":"Montréal","review_count":10,"name":"Restaurant La Dora","neighborhoods":["Mercier-Hochelaga-Maisonneuve"],"longitude":-73.5417,"state":"QC","stars":4.5,"latitude":45.5857,"cat":"Italian"},{"business_id":"JJg_QP3V16k5pQwhQg2oPQ","categories":["Restaurants","Pizza","Italian"],"city":"Montréal","review_count":15,"name":"Restaurant Da Lillo","neighborhoods":["Villeray-Saint-Michel-Parc-Extension"],"longitude":-73.6282,"state":"QC","stars":4.5,"latitude":45.5446,"cat":"Italian"},{"business_id":"SfdwT-pN-pUW4bvziL0Lyw","categories":["Restaurants","Italian"],"city":"Montréal","review_count":44,"name":"Eduardo Duluth","neighborhoods":["Plateau-Mont-Royal"],"longitude":-73.5756,"state":"QC","stars":3.5,"latitude":45.521,"cat":"Italian"},{"business_id":"SoWDqbVvIgRMYFkCBUDVDg","categories":["Restaurants","Italian"],"city":"Montréal","review_count":17,"name":"Casa Cacciatore","neighborhoods":["Rosemont-La Petite-Patrie"],"longitude":-73.6164,"state":"QC","stars":4.5,"latitude":45.5359,"cat":"Italian"},{"business_id":"tBcmjM0Viq0souFulPpLQA","categories":["Restaurants","Italian"],"city":"Montréal","review_count":5,"name":"Amarone","neighborhoods":["Ville-Marie"],"longitude":-73.5659,"state":"QC","stars":4,"latitude":45.5161,"cat":"Italian"},{"business_id":"YMyhqkLQbypuQA4Aj20gdg","categories":["Italian","Pizza","Restaurants"],"city":"Montréal","review_count":37,"name":"Elio Pizzeria","neighborhoods":["Rosemont-La Petite-Patrie"],"longitude":-73.6025,"state":"QC","stars":4,"latitude":45.5321,"cat":"Italian"},{"business_id":"YyYwDJXQeYqnndPjd0HjUw","categories":["Food","Coffee & Tea","Restaurants","Italian"],"city":"Montréal","review_count":7,"name":"Le Café Crème","neighborhoods":["Rosemont-La Petite-Patrie"],"longitude":-73.6125,"state":"QC","stars":3,"latitude":45.5405,"cat":"Italian"},{"business_id":"-movHgw5J8_X8l195k_whQ","categories":["Food","Coffee & Tea","Restaurants","Cafes","Italian"],"city":"Montréal","review_count":38,"name":"Caffè Italia","neighborhoods":["Rosemont-La Petite-Patrie"],"longitude":-73.6144,"state":"QC","stars":4,"latitude":45.5327,"cat":"Italian"},{"business_id":"YZwtBSnVXk9CaH2buM-pcQ","categories":["Restaurants","Italian"],"city":"Montréal","review_count":12,"name":"Misto","neighborhoods":["Plateau-Mont-Royal"],"longitude":-73.5804,"state":"QC","stars":4,"latitude":45.5268,"cat":"Italian"},{"business_id":"CMWxDaXQ4lT2MxQyG4rOjg","categories":["Indian","Restaurants","Pizza","Italian"],"city":"Montréal","review_count":8,"name":"Sandhu","neighborhoods":["Plateau-Mont-Royal"],"longitude":-73.5755,"state":"QC","stars":3.5,"latitude":45.5332,"cat":"Italian"},{"business_id":"NQR74d-x7QIhgYg125zd6A","categories":["Restaurants","Pizza","Italian"],"city":"Montréal","review_count":95,"name":"Pizzeria Napoletana","neighborhoods":["Rosemont-La Petite-Patrie"],"longitude":-73.6126,"state":"QC","stars":3.5,"latitude":45.5344,"cat":"Italian"},{"business_id":"6bCXom6ZlRxuyMZKUYyUtQ","categories":["Italian","French","Restaurants"],"city":"Montréal","review_count":3,"name":"Apollo","neighborhoods":["Rosemont-La Petite-Patrie"],"longitude":-73.6078,"state":"QC","stars":4.5,"latitude":45.5301,"cat":"Italian"},{"business_id":"DW5p-w9ntpxZlLNMkY9ShA","categories":["Restaurants","Italian"],"city":"Montréal","review_count":13,"name":"Otto Ristorante Bar","neighborhoods":["Ville-Marie"],"longitude":-73.5619,"state":"QC","stars":3,"latitude":45.5021,"cat":"Italian"},{"business_id":"4KOlK2p7ht4lpcsnDVL-TA","categories":["Seafood","Italian","Mediterranean","Restaurants"],"city":"Montréal","review_count":18,"name":"Restaurant Alexandre","neighborhoods":["Plateau-Mont-Royal"],"longitude":-73.5746,"state":"QC","stars":4,"latitude":45.522,"cat":"Italian"},{"business_id":"pUHxbf2_Dz9ky76PJRuf-g","categories":["Restaurants","Pizza","Italian"],"city":"Montréal","review_count":13,"name":"La Fornarina","neighborhoods":["Rosemont-La Petite-Patrie"],"longitude":-73.6137,"state":"QC","stars":3,"latitude":45.5328,"cat":"Italian"},{"business_id":"pSBWzmqot25Bs9hWmxmKtQ","categories":["Restaurants","Italian"],"city":"Montréal","review_count":11,"name":"Da Franco Ristorante","neighborhoods":["Ville-Marie"],"longitude":-73.5579,"state":"QC","stars":4,"latitude":45.5035,"cat":"Italian"},{"business_id":"p2XhSODHjatBgzADBV4xvw","categories":["Restaurants","Italian"],"city":"Montréal","review_count":6,"name":"Restaurant Le Latini","neighborhoods":["Ville-Marie"],"longitude":-73.5639,"state":"QC","stars":4,"latitude":45.5061,"cat":"Italian"},{"business_id":"xSPyyqRWx8r4UhSymexgLw","categories":["Restaurants","Italian"],"city":"Montréal","review_count":12,"name":"Restaurant Tre Marie","neighborhoods":["Rosemont-La Petite-Patrie"],"longitude":-73.6159,"state":"QC","stars":4.5,"latitude":45.5326,"cat":"Italian"},{"business_id":"9jQErGYcc6iWHhjg2zIU8Q","categories":["Restaurants","Italian"],"city":"Montréal","review_count":19,"name":"Trattoria Piatto Pieno","neighborhoods":["Rosemont-La Petite-Patrie"],"longitude":-73.6108,"state":"QC","stars":2.5,"latitude":45.5334,"cat":"Italian"},{"business_id":"kvUyO_4QuiQo0NbY2Ws-ag","categories":["Restaurants","Italian"],"city":"Montréal","review_count":3,"name":"Chez Paesano","neighborhoods":["Ville-Marie"],"longitude":-73.5636,"state":"QC","stars":3.5,"latitude":45.5154,"cat":"Italian"},{"business_id":"AF85H0ikaqHYPwnv3FN3Gg","categories":["Italian","Pizza","Restaurants"],"city":"Montréal","review_count":50,"name":"Amelios","neighborhoods":["Plateau-Mont-Royal"],"longitude":-73.5727,"state":"QC","stars":4,"latitude":45.5107,"cat":"Italian"},{"business_id":"9-I9bK54JmniG56jD2Ohjw","categories":["Greek","American (Traditional)","Restaurants","Italian"],"city":"Montréal","review_count":4,"name":"Hotdogeria Restaurant","neighborhoods":["Plateau-Mont-Royal"],"longitude":-73.5674,"state":"QC","stars":2.5,"latitude":45.533,"cat":"Italian"},{"business_id":"p-QXxnRi4bWB3gnU4rYlSA","categories":["Restaurants","Cafes","Italian"],"city":"Montréal","review_count":10,"name":"Café International","neighborhoods":["Rosemont-La Petite-Patrie"],"longitude":-73.6127,"state":"QC","stars":3.5,"latitude":45.532,"cat":"Italian"},{"business_id":"HDJvuaq8SOFEN4cPuG0FUQ","categories":["Restaurants","Italian"],"city":"Montréal","review_count":8,"name":"Cafe Via Dante","neighborhoods":["Rosemont-La Petite-Patrie"],"longitude":-73.6119,"state":"QC","stars":4.5,"latitude":45.5349,"cat":"Italian"},{"business_id":"t1QKNGQK0K5VfmyzGV-qcg","categories":["Restaurants","Italian"],"city":"Montréal","review_count":3,"name":"Restaurant Il Mulino","neighborhoods":["Rosemont-La Petite-Patrie"],"longitude":-73.6098,"state":"QC","stars":4.5,"latitude":45.5338,"cat":"Italian"},{"business_id":"kf4lJNQgwZNxdtpjZLYrhw","categories":["Restaurants","Italian"],"city":"Montréal","review_count":46,"name":"Restaurant Papillon","neighborhoods":["Ville-Marie"],"longitude":-73.5532,"state":"QC","stars":3.5,"latitude":45.5066,"cat":"Italian"},{"business_id":"9Fvx8gqdfEmqHrmXNF774A","categories":["Restaurants","Italian"],"city":"Montréal","review_count":15,"name":"Da Giovanni","neighborhoods":["Ville-Marie"],"longitude":-73.5587,"state":"QC","stars":2.5,"latitude":45.5152,"cat":"Italian"},{"business_id":"21d8E4ZgnnnU83OWFrs-Wg","categories":["Food","Delicatessen","Restaurants","Italian"],"city":"Montréal","review_count":8,"name":"La Maison des Pâtes Fraîches","neighborhoods":["Plateau-Mont-Royal"],"longitude":-73.5761,"state":"QC","stars":4.5,"latitude":45.5243,"cat":"Italian"},{"business_id":"nvbWu4jweBGE2a_KK_J3Ag","categories":["Restaurants","Italian"],"city":"Montréal","review_count":4,"name":"Bu","neighborhoods":["Plateau-Mont-Royal"],"longitude":-73.5953,"state":"QC","stars":4,"latitude":45.5243,"cat":"Italian"},{"business_id":"TMgyKx_B6Tlb4-ceCEDdXQ","categories":["Restaurants","Italian"],"city":"Montréal","review_count":10,"name":"Restaurant La Popessa","neighborhoods":["Ville-Marie"],"longitude":-73.56,"state":"QC","stars":3.5,"latitude":45.5048,"cat":"Italian"},{"business_id":"s7sJa8ftvCd5LSH5ngkkzg","categories":["Italian","Pizza","Restaurants"],"city":"Montréal","review_count":25,"name":"La Piazzetta","neighborhoods":["Ville-Marie"],"longitude":-73.5571,"state":"QC","stars":4,"latitude":45.5177,"cat":"Italian"},{"business_id":"5BrFl_1of-FQ5UQA3PbYEA","categories":["Restaurants","Italian"],"city":"Montréal","review_count":15,"name":"Restaurant Roberto","neighborhoods":["Rosemont-La Petite-Patrie"],"longitude":-73.6009,"state":"QC","stars":3.5,"latitude":45.5496,"cat":"Italian"},{"business_id":"tNER--0FWGA88UhiJf_cuQ","categories":["Restaurants","Italian"],"city":"Montréal","review_count":49,"name":"L'usine De Spaghetti","neighborhoods":["Ville-Marie"],"longitude":-73.5523,"state":"QC","stars":3.5,"latitude":45.5081,"cat":"Italian"},{"business_id":"AO3nJB2oYebH1lM8a6n-qQ","categories":["Restaurants","Italian"],"city":"Montréal","review_count":15,"name":"Le Colbert","neighborhoods":["Villeray-Saint-Michel-Parc-Extension"],"longitude":-73.6111,"state":"QC","stars":4,"latitude":45.5437,"cat":"Italian"},{"business_id":"bjv2rKlIjyN5SI6nELN14Q","categories":["Restaurants","Italian"],"city":"Montréal","review_count":11,"name":"Via Roma","neighborhoods":["Rosemont-La Petite-Patrie"],"longitude":-73.6165,"state":"QC","stars":3.5,"latitude":45.5337,"cat":"Italian"},{"business_id":"bPId8S_Ab9mTRyG4bDoUJw","categories":["Restaurants","Italian"],"city":"Montréal","review_count":14,"name":"Pacini","neighborhoods":["Ville-Marie"],"longitude":-73.5598,"state":"QC","stars":3,"latitude":45.5133,"cat":"Italian"},{"business_id":"a2jSTkUdEffGP1QWpYGJUQ","categories":["Restaurants","Italian"],"city":"Montréal","review_count":9,"name":"Restaurant Casa Napoli","neighborhoods":["Rosemont-La Petite-Patrie"],"longitude":-73.6128,"state":"QC","stars":4,"latitude":45.532,"cat":"Italian"},{"business_id":"MBYz3r_77mdQvb_iR_zi-A","categories":["Restaurants","Italian"],"city":"Montréal","review_count":9,"name":"Restaurant Lucca","neighborhoods":["Rosemont-La Petite-Patrie"],"longitude":-73.6136,"state":"QC","stars":4,"latitude":45.5329,"cat":"Italian"},{"business_id":"Z80K0SyfM_P5PAaC5tBP-w","categories":["Restaurants","Italian"],"city":"Montréal","review_count":17,"name":"La Strega du Village","neighborhoods":["Ville-Marie"],"longitude":-73.554,"state":"QC","stars":4,"latitude":45.5209,"cat":"Italian"},{"business_id":"tjYVtqLgBxIrLa7e-cWGww","categories":["Restaurants","Event Planning & Services","Venues & Event Spaces","Italian"],"city":"Montréal","review_count":6,"name":"Pasta Express","neighborhoods":["Ahunstic-Cartierville"],"longitude":-73.6566,"state":"QC","stars":3,"latitude":45.5627,"cat":"Italian"},{"business_id":"o0JscnlNBXR1XeGWtcVqjg","categories":["Restaurants","Italian"],"city":"Montréal","review_count":3,"name":"Cafe Trattoria Pane E Vino","neighborhoods":["Ville-Marie"],"longitude":-73.5581,"state":"QC","stars":4,"latitude":45.5039,"cat":"Italian"},{"business_id":"v9mHZU00k-HJH3fUj2r1JA","categories":["Restaurants","Italian"],"city":"Montréal","review_count":4,"name":"Restaurant La Cucina","neighborhoods":["Plateau-Mont-Royal"],"longitude":-73.5937,"state":"QC","stars":4.5,"latitude":45.5233,"cat":"Italian"},{"business_id":"W2VRvVzi938xSpz2Xd4Vfw","categories":["Italian","Canadian (New)","Restaurants"],"city":"Montréal","review_count":14,"name":"Mozza Pâtes et Passions","neighborhoods":["Ville-Marie"],"longitude":-73.555,"state":"QC","stars":4,"latitude":45.5196,"cat":"Italian"},{"business_id":"Cco-UbkCSjxdsBQKovn1Yg","categories":["Wine Bars","Bars","Restaurants","Nightlife","Italian"],"city":"Montréal","review_count":10,"name":"Ristorante Primo & Secondo","neighborhoods":["Rosemont-La Petite-Patrie"],"longitude":-73.6155,"state":"QC","stars":4.5,"latitude":45.5344,"cat":"Italian"},{"business_id":"hJcJwIBp6gStbNaFLOss9A","categories":["Restaurants","Pizza","Italian"],"city":"Montréal","review_count":12,"name":"Ristorante Da Enrico","neighborhoods":["Rosemont-La Petite-Patrie"],"longitude":-73.6096,"state":"QC","stars":3,"latitude":45.5341,"cat":"Italian"},{"business_id":"Q9LNT8I21O7AuefRhFXDVA","categories":["Restaurants","Cafes","Italian"],"city":"Montréal","review_count":18,"name":"Café Epoca","neighborhoods":["Rosemont-La Petite-Patrie"],"longitude":-73.6135,"state":"QC","stars":3.5,"latitude":45.5324,"cat":"Italian"},{"business_id":"Wn9K0O010E81YYsM1BTBCQ","categories":["Restaurants","Pizza","Italian"],"city":"Montréal","review_count":9,"name":"Pizzaiolle","neighborhoods":["Plateau-Mont-Royal"],"longitude":-73.5864,"state":"QC","stars":3.5,"latitude":45.5257,"cat":"Italian"},{"business_id":"lPgwznPyAehZ0qbY8vFIWg","categories":["Restaurants","Italian"],"city":"Montréal","review_count":11,"name":"Restaurant Galianos","neighborhoods":["Ville-Marie"],"longitude":-73.5535,"state":"QC","stars":3.5,"latitude":45.5073,"cat":"Italian"},{"business_id":"uci0TdR22z8LfPxf00twqw","categories":["Breakfast & Brunch","Restaurants","Italian"],"city":"Montréal","review_count":3,"name":"Caffè Della Posta","neighborhoods":["Plateau-Mont-Royal"],"longitude":-73.6059,"state":"QC","stars":3.5,"latitude":45.5235,"cat":"Italian"},{"business_id":"Q0kUJ41DwSrNgm0VGvdWDQ","categories":["Restaurants","Pizza","Italian"],"city":"Montréal","review_count":33,"name":"Napoli Pizzeria","neighborhoods":["Ville-Marie"],"longitude":-73.5637,"state":"QC","stars":3,"latitude":45.5154,"cat":"Italian"},{"business_id":"JWPlUMDPY6hHZauVEC3kpA","categories":["Restaurants","Italian"],"city":"Montreal","review_count":3,"name":"Restaurant Pasta A Piacere","neighborhoods":["Ville-Marie"],"longitude":-73.5579,"state":"QC","stars":2.5,"latitude":45.5028,"cat":"Italian"},{"business_id":"Jvnrrl66JhqrV-18wGy-lQ","categories":["Restaurants","Italian"],"city":"Montréal","review_count":3,"name":"Restaurant Pasta Bar","neighborhoods":["Ahunstic-Cartierville"],"longitude":-73.653,"state":"QC","stars":4.5,"latitude":45.5407,"cat":"Italian"},{"business_id":"udqu4L9pHPlVT_r-jJbvRQ","categories":["Italian","Pizza","Restaurants"],"city":"Montréal","review_count":12,"name":"La Piazzetta","neighborhoods":["Plateau-Mont-Royal"],"longitude":-73.5765,"state":"QC","stars":3.5,"latitude":45.5213,"cat":"Italian"},{"business_id":"1dcpebH2Pxo_9XY6HHpBYw","categories":["Restaurants","Italian"],"city":"Montréal","review_count":4,"name":"Restaurant Guido & Angelina","neighborhoods":["Ville-Marie"],"longitude":-73.5829,"state":"QC","stars":3,"latitude":45.4905,"cat":"Italian"},{"business_id":"npV28dGj3KIcpf1zOhM7Qg","categories":["Restaurants","Italian"],"city":"Montréal","review_count":3,"name":"Le Muscadin","neighborhoods":["Ville-Marie"],"longitude":-73.5603,"state":"QC","stars":3.5,"latitude":45.5004,"cat":"Italian"},{"business_id":"nUkynd1gez3jqsa9oslTIQ","categories":["Restaurants","Italian"],"city":"Montréal","review_count":25,"name":"Restaurant Guido & Angelina","neighborhoods":["Ville-Marie"],"longitude":-73.5707,"state":"QC","stars":2.5,"latitude":45.5022,"cat":"Italian"},{"business_id":"94tqDP9jqemQY3LzjeEOkA","categories":["Restaurants","Pizza","Italian"],"city":"Montréal","review_count":27,"name":"Restaurant Pino","neighborhoods":["Ville-Marie"],"longitude":-73.5773,"state":"QC","stars":3,"latitude":45.4981,"cat":"Italian"},{"business_id":"0OhiWafyODzdWh4LR1Fphw","categories":["Restaurants","Italian"],"city":"Montréal","review_count":26,"name":"Restaurant Da Vinci","neighborhoods":["Ville-Marie"],"longitude":-73.5747,"state":"QC","stars":4,"latitude":45.4956,"cat":"Italian"},{"business_id":"z_8t0AeYl5l8IINwD2LfaA","categories":["Restaurants","French","Italian"],"city":"Montréal","review_count":19,"name":"Fiore Bistro","neighborhoods":["Ville-Marie"],"longitude":-73.5724,"state":"QC","stars":4.5,"latitude":45.5013,"cat":"Italian"},{"business_id":"UitkgQH5vz82u8Dj2iIG2w","categories":["Restaurants","Italian"],"city":"Montréal","review_count":7,"name":"Restaurant Pasta Tella","neighborhoods":["Ville-Marie"],"longitude":-73.5762,"state":"QC","stars":3.5,"latitude":45.5008,"cat":"Italian"},{"business_id":"mq-jKj0SM2mvvXtdzL4tjw","categories":["Restaurants","Italian"],"city":"Montréal","review_count":10,"name":"Restaurant La Medusa","neighborhoods":["Ville-Marie"],"longitude":-73.5732,"state":"QC","stars":3.5,"latitude":45.4979,"cat":"Italian"},{"business_id":"oERKQJ0BnBWeVV7fgepX5A","categories":["Restaurants","Italian"],"city":"Montréal","review_count":12,"name":"Restaurant Ferrari","neighborhoods":["Ville-Marie"],"longitude":-73.5766,"state":"QC","stars":3.5,"latitude":45.4969,"cat":"Italian"},{"business_id":"nmItOKXkVM0nJJjSgQTozw","categories":["Italian","Cafes","Restaurants"],"city":"Montréal","review_count":15,"name":"Cafe Presto","neighborhoods":["Ville-Marie"],"longitude":-73.5727,"state":"QC","stars":4,"latitude":45.4989,"cat":"Italian"},{"business_id":"wrxMjl7YD90m1yeNunwKOw","categories":["Bars","Restaurants","Nightlife","Lounges","Italian"],"city":"Montréal","review_count":37,"name":"Ristorante Cavalli","neighborhoods":["Ville-Marie"],"longitude":-73.5752,"state":"QC","stars":3.5,"latitude":45.5011,"cat":"Italian"},{"business_id":"9eLBUR4i5mnV5A87pVATIw","categories":["Restaurants","Italian"],"city":"Montréal","review_count":13,"name":"Bellagio Ristorante","neighborhoods":["Ville-Marie"],"longitude":-73.5708,"state":"QC","stars":4,"latitude":45.5056,"cat":"Italian"},{"business_id":"-agh_pVxtZTaODE-3NAotg","categories":["Restaurants","Italian"],"city":"Montréal","review_count":17,"name":"Bis Restaurant","neighborhoods":["Ville-Marie"],"longitude":-73.5743,"state":"QC","stars":4,"latitude":45.4977,"cat":"Italian"},{"business_id":"VDRIf-as3F3ELnzJ1WMJvA","categories":["Restaurants","Italian"],"city":"Montréal","review_count":10,"name":"Restaurant Il Cortile","neighborhoods":["Ville-Marie"],"longitude":-73.5803,"state":"QC","stars":4,"latitude":45.4979,"cat":"Italian"},{"business_id":"JmsmeW-colgeA0aLNCYUug","categories":["Restaurants","Italian"],"city":"Montréal","review_count":25,"name":"Ristorante Beatrice","neighborhoods":["Ville-Marie"],"longitude":-73.581,"state":"QC","stars":4.5,"latitude":45.497,"cat":"Italian"},{"business_id":"rfOqwm-Fct2t7Q076m-Dcw","categories":["Restaurants","Italian"],"city":"Montréal","review_count":26,"name":"Rotisserie Italienne","neighborhoods":["Ville-Marie"],"longitude":-73.581,"state":"QC","stars":3.5,"latitude":45.4925,"cat":"Italian"},{"business_id":"EE14LUTGkw7NVcpP0d_x0A","categories":["Restaurants","Italian"],"city":"Montréal","review_count":15,"name":"La Trattoria","neighborhoods":["Sud-Ouest"],"longitude":-73.5672,"state":"QC","stars":3,"latitude":45.4904,"cat":"Italian"},{"business_id":"hIfzTioNknYq4e8puMZF9Q","categories":["Italian","Middle Eastern","French","Restaurants"],"city":"Montréal","review_count":22,"name":"Restaurant Decca 77","neighborhoods":["Ville-Marie"],"longitude":-73.5711,"state":"QC","stars":3.5,"latitude":45.4973,"cat":"Italian"},{"business_id":"gFdcQ6FTPW1gp8ywKKVUUw","categories":["Modern European","Italian","Restaurants"],"city":"Montréal","review_count":31,"name":"Boccacinos Restaurant","neighborhoods":["Ville-Marie"],"longitude":-73.5705,"state":"QC","stars":2,"latitude":45.5017,"cat":"Italian"},{"business_id":"5N64spCCuy4-RuCizQho8A","categories":["Restaurants","Italian"],"city":"Montréal","review_count":5,"name":"Restaurant Zia","neighborhoods":["Ville-Marie"],"longitude":-73.5678,"state":"QC","stars":3.5,"latitude":45.5037,"cat":"Italian"},{"business_id":"jfD79Z9JKPMMDvcNZ_XrjA","categories":["Bars","Restaurants","Nightlife","Italian"],"city":"Montréal","review_count":20,"name":"Restaurant Rosalie","neighborhoods":["Ville-Marie"],"longitude":-73.5746,"state":"QC","stars":3,"latitude":45.4974,"cat":"Italian"},{"business_id":"lMZIBOyq7S0HUYdGXGdmow","categories":["Restaurants","Italian"],"city":"Montréal","review_count":4,"name":"Carmine's Tuscany Grill","neighborhoods":["Notre-Dame-de-Grâce"],"longitude":-73.6264,"state":"QC","stars":3,"latitude":45.479,"cat":"Italian"},{"business_id":"fdKXdj2L3DiyHvqHw6FCvg","categories":["Restaurants","Pizza","Italian"],"city":"Montréal","review_count":40,"name":"Restaurant Santa Lucia","neighborhoods":["Ville-Marie"],"longitude":-73.5731,"state":"QC","stars":3.5,"latitude":45.499,"cat":"Italian"},{"business_id":"KhBLS60PLQkPN7CHTcs8Ww","categories":["Restaurants","Italian"],"city":"Montréal","review_count":16,"name":"Il Campari Centro","neighborhoods":["Ville-Marie"],"longitude":-73.5731,"state":"QC","stars":4,"latitude":45.497,"cat":"Italian"},{"business_id":"Vq_gO_Wsf90AZl0KLB_gjQ","categories":["Restaurants","Italian"],"city":"Montréal","review_count":61,"name":"Da Emma","neighborhoods":["Sud-Ouest"],"longitude":-73.5531,"state":"QC","stars":4,"latitude":45.496,"cat":"Italian"},{"business_id":"F2BBQrVFOiP-94gTWwzp1w","categories":["Restaurants","Pizza","Italian"],"city":"Montréal","review_count":6,"name":"Mamma Mia Restaurant","neighborhoods":["Hampstead"],"longitude":-73.64,"state":"QC","stars":4,"latitude":45.4762,"cat":"Italian"},{"business_id":"hg2q5fJNH1c-CYZWT1Sc4g","categories":["Italian","Pizza","Restaurants"],"city":"Montreal","review_count":182,"name":"Pizza Il Focolaio","neighborhoods":["Ville-Marie"],"longitude":-73.5682,"state":"QC","stars":4,"latitude":45.504,"cat":"Italian"},{"business_id":"YEDU6m_75cM7vBW027W3RQ","categories":["Restaurants","Italian"],"city":"Montréal","review_count":8,"name":"Cafe Via Crescent","neighborhoods":["Ville-Marie"],"longitude":-73.5765,"state":"QC","stars":3,"latitude":45.4974,"cat":"Italian"},{"business_id":"X-2k9Be825ZSVAZ3le9x3A","categories":["Restaurants","Italian"],"city":"Montréal","review_count":26,"name":"Chez Ennio","neighborhoods":["Ville-Marie"],"longitude":-73.5826,"state":"QC","stars":4.5,"latitude":45.4927,"cat":"Italian"},{"business_id":"RVz2gO5tMdViTm5Fj8bQNw","categories":["Restaurants","Pizza","Italian"],"city":"Montréal","review_count":26,"name":"Mikes Restaurant","neighborhoods":["Ville-Marie"],"longitude":-73.5756,"state":"QC","stars":2.5,"latitude":45.4973,"cat":"Italian"},{"business_id":"IcWHkCvHv16OeljMtduUlg","categories":["Greek","Italian","Restaurants"],"city":"Montréal","review_count":6,"name":"Carveli","neighborhoods":["Côte Saint-Luc"],"longitude":-73.6511,"state":"QC","stars":4,"latitude":45.4679,"cat":"Italian"},{"business_id":"8CC5z_Naw5cICEkmQ7XHLg","categories":["Restaurants","Italian"],"city":"Montreal","review_count":13,"name":"Pasta Casareccia","neighborhoods":["Notre-Dame-de-Grâce"],"longitude":-73.6183,"state":"QC","stars":3.5,"latitude":45.4696,"cat":"Italian"},{"business_id":"QB8g6DYEraaybA9M2Q5iJw","categories":["Wine Bars","Bars","Restaurants","Nightlife","Italian"],"city":"Montréal","review_count":135,"name":"Wienstein & Gavino's","neighborhoods":["Ville-Marie"],"longitude":-73.5768,"state":"QC","stars":3.5,"latitude":45.4975,"cat":"Italian"},{"business_id":"bFu_GAhi14uVI6-S35ONEA","categories":["Bars","Restaurants","Nightlife","Lounges","Italian"],"city":"Montréal","review_count":6,"name":"MED Bar + Grill","neighborhoods":["Plateau-Mont-Royal"],"longitude":-73.5708,"state":"QC","stars":3.5,"latitude":45.513,"cat":"Italian"},{"business_id":"purbk_ktXTO5nJZSPkCgCQ","categories":["Italian","Pizza","Restaurants"],"city":"Montréal","review_count":7,"name":"Mamma's Pizzeria","neighborhoods":["Plateau-Mont-Royal"],"longitude":-73.5759,"state":"QC","stars":3.5,"latitude":45.5143,"cat":"Italian"},{"business_id":"VzG3VWLnGCrRaQGgtcmtow","categories":["Restaurants","Nightlife","Dance Clubs","Italian"],"city":"Montréal","review_count":68,"name":"Restaurant Buonanotte","neighborhoods":["Plateau-Mont-Royal"],"longitude":-73.571,"state":"QC","stars":2.5,"latitude":45.5131,"cat":"Italian"},{"business_id":"2-BP4L8inZ5CecmkLIT_eg","categories":["Restaurants","Pizza","Italian"],"city":"Montréal","review_count":34,"name":"Restaurant Pizzaiolle","neighborhoods":["Ville-Marie"],"longitude":-73.5543,"state":"QC","stars":4,"latitude":45.499,"cat":"Italian"},{"business_id":"ltpe8IBhCaNxkGWApq1hOw","categories":["Italian","French","Restaurants"],"city":"Montréal","review_count":70,"name":"Restaurant l'Academie","neighborhoods":["Ville-Marie"],"longitude":-73.5783,"state":"QC","stars":3.5,"latitude":45.4982,"cat":"Italian"},{"business_id":"9kmQ_1rftk5Il4i9DAeH_w","categories":["Restaurants","Italian"],"city":"Montréal","review_count":7,"name":"Cibo & Vino","neighborhoods":["Ville-Marie"],"longitude":-73.5725,"state":"QC","stars":3.5,"latitude":45.4987,"cat":"Italian"},{"business_id":"2m6Q9jhmvtcA4KNnNjO4oA","categories":["Restaurants","Nightlife","Dance Clubs","Italian"],"city":"Montréal","review_count":13,"name":"Macaroni Bar","neighborhoods":["Plateau-Mont-Royal"],"longitude":-73.5861,"state":"QC","stars":2.5,"latitude":45.5197,"cat":"Italian"},{"business_id":"pu2Nvtu0YnLbNUAiYFfN6Q","categories":["Restaurants","Italian"],"city":"Montréal","review_count":3,"name":"Chez Di Vito","neighborhoods":["Plateau-Mont-Royal"],"longitude":-73.5927,"state":"QC","stars":3.5,"latitude":45.5184,"cat":"Italian"},{"business_id":"BtWrVv_GxLQGFJLt97_Bdw","categories":["Italian","Mediterranean","Restaurants"],"city":"Montréal","review_count":5,"name":"Primo Amore","neighborhoods":["Plateau-Mont-Royal"],"longitude":-73.5735,"state":"QC","stars":1.5,"latitude":45.5128,"cat":"Italian"},{"business_id":"_vuqFcv8et3oK52SF2rcFg","categories":["Restaurants","Italian"],"city":"Montréal","review_count":17,"name":"Graziella","neighborhoods":["Ville-Marie"],"longitude":-73.5556,"state":"QC","stars":3.5,"latitude":45.4995,"cat":"Italian"},{"business_id":"PGKwfZWAIf8WjGV6O1Homg","categories":["Restaurants","Italian"],"city":"Montréal","review_count":3,"name":"Basi","neighborhoods":["Rosemont-La Petite-Patrie"],"longitude":-73.6158,"state":"QC","stars":3,"latitude":45.5352,"cat":"Italian"},{"business_id":"WRab3HAmcOTJwOR1d1Q5Qw","categories":["Restaurants","Italian"],"city":"Montréal","review_count":17,"name":"Café Bistro La Marinara","neighborhoods":["Ville-Marie"],"longitude":-73.5723,"state":"QC","stars":4,"latitude":45.4987,"cat":"Italian"},{"business_id":"yBqx5h48gfBx0qO_tGWVkA","categories":["Wine Bars","Bars","Restaurants","Nightlife","Italian"],"city":"Montréal","review_count":12,"name":"Salumi Vino","neighborhoods":["Ville-Marie"],"longitude":-73.5525,"state":"QC","stars":5,"latitude":45.51,"cat":"Italian"},{"business_id":"JSszLGVQA0GuTu4ZTvIFKQ","categories":["Restaurants","Italian"],"city":"Montréal","review_count":24,"name":"Caffe & Cucina","neighborhoods":["Plateau-Mont-Royal"],"longitude":-73.5711,"state":"QC","stars":2.5,"latitude":45.5082,"cat":"Italian"},{"business_id":"m4Cj-tvXZDwAU4IpqX0nPw","categories":["Food","Breakfast & Brunch","Restaurants","Coffee & Tea","Italian"],"city":"Montréal","review_count":17,"name":"Le Caffe Mariani","neighborhoods":["Sud-Ouest"],"longitude":-73.5872,"state":"QC","stars":3.5,"latitude":45.4743,"cat":"Italian"},{"business_id":"nMJwdBbLDD1O9i4WIEGxHg","categories":["Restaurants","Canadian (New)","Italian"],"city":"Montréal","review_count":41,"name":"Tuck Shop","neighborhoods":["Sud-Ouest"],"longitude":-73.5883,"state":"QC","stars":4.5,"latitude":45.4729,"cat":"Italian"},{"business_id":"GUACaVK0jB-T2AGZO-QcaQ","categories":["Restaurants","Italian"],"city":"Montréal","review_count":8,"name":"La Popessa","neighborhoods":["Plateau-Mont-Royal"],"longitude":-73.5725,"state":"QC","stars":3.5,"latitude":45.5194,"cat":"Italian"},{"business_id":"ktaBZfjzwUtVICxUuYAKng","categories":["Restaurants","Italian"],"city":"Montréal","review_count":75,"name":"Ristorante Quattro","neighborhoods":["Ville-Marie"],"longitude":-73.5561,"state":"QC","stars":4,"latitude":45.5059,"cat":"Italian"},{"business_id":"EszEYUwjB8wrO_jkLRXPvQ","categories":["Restaurants","Italian"],"city":"Montréal","review_count":15,"name":"Restaurant Trattoria Di Mikes","neighborhoods":["Ville-Marie"],"longitude":-73.5657,"state":"QC","stars":2.5,"latitude":45.5074,"cat":"Italian"},{"business_id":"vqiAO2bD5CcPaiQVhJlLJQ","categories":["Restaurants","Italian"],"city":"Montréal","review_count":37,"name":"Osteria Venti","neighborhoods":["Ville-Marie"],"longitude":-73.5565,"state":"QC","stars":3.5,"latitude":45.5008,"cat":"Italian"},{"business_id":"EXdKd9VZ1-qUsJEcGC5J5A","categories":["Restaurants","Italian"],"city":"Montréal","review_count":21,"name":"Café Maurizio","neighborhoods":["Plateau-Mont-Royal"],"longitude":-73.571,"state":"QC","stars":3,"latitude":45.5133,"cat":"Italian"},{"business_id":"MPpz9F8oFaUwqQc_V5qyQw","categories":["Restaurants","Pizza","Italian"],"city":"Montréal","review_count":18,"name":"Kono Pizza","neighborhoods":["Hampstead"],"longitude":-73.6403,"state":"QC","stars":4,"latitude":45.4782,"cat":"Italian"},{"business_id":"9RhAB7YQOKIXIjYqDHFOxA","categories":["Restaurants","Italian"],"city":"Montréal","review_count":43,"name":"Nora Gray","neighborhoods":["Ville-Marie"],"longitude":-73.5684,"state":"QC","stars":4.5,"latitude":45.4931,"cat":"Italian"},{"business_id":"dgLePWtFrszyQYzg6_YREQ","categories":["Restaurants","Italian"],"city":"Montréal","review_count":4,"name":"Restaurant Inferno","neighborhoods":["Rosemont-La Petite-Patrie"],"longitude":-73.6135,"state":"QC","stars":4,"latitude":45.5333,"cat":"Italian"},{"business_id":"xg6NJ3DOkCsEsJQrxF0sOw","categories":["Restaurants","Sandwiches","Italian"],"city":"Montréal","review_count":9,"name":"L'Artisan Piadineria","neighborhoods":["Plateau-Mont-Royal"],"longitude":-73.5679,"state":"QC","stars":4,"latitude":45.5174,"cat":"Italian"},{"business_id":"wCz3IazQXY7ktrIg_sWZcQ","categories":["Restaurants","Italian"],"city":"Montréal","review_count":3,"name":"Orotoro","neighborhoods":["Mont-Royal"],"longitude":-73.6572,"state":"QC","stars":4.5,"latitude":45.4932,"cat":"Italian"},{"business_id":"QuV2ioyLpqfMu_YTjqBG-w","categories":["Italian","Mediterranean","Restaurants"],"city":"Montréal","review_count":6,"name":"La Méditerranée","neighborhoods":["Ville-Marie"],"longitude":-73.5742,"state":"QC","stars":4,"latitude":45.4978,"cat":"Italian"},{"business_id":"quNvbRN4_-OhAfVtGHjQ8Q","categories":["Italian","Bars","Pizza","Nightlife","Restaurants"],"city":"Montréal","review_count":132,"name":"BEVO Bar + Pizzeria","neighborhoods":["Ville-Marie"],"longitude":-73.5536,"state":"QC","stars":4,"latitude":45.5072,"cat":"Italian"},{"business_id":"gMgwnFU6BFgsZSf58r9BYQ","categories":["Restaurants","Italian"],"city":"Montréal","review_count":3,"name":"Trattoria Cinecita","neighborhoods":["Côte-des-Neiges"],"longitude":-73.6309,"state":"QC","stars":4,"latitude":45.484,"cat":"Italian"},{"business_id":"MoyJsOLRKIomFlRQ1ZGPpQ","categories":["Restaurants","Italian"],"city":"Montréal","review_count":8,"name":"Luca e Franco Osteria","neighborhoods":["Plateau-Mont-Royal"],"longitude":-73.5683,"state":"QC","stars":3,"latitude":45.5174,"cat":"Italian"},{"business_id":"bzmsiFkcPxvhViq2-riODg","categories":["Restaurants","Italian"],"city":"Montréal","review_count":5,"name":"Ristorante Il Caviliere","neighborhoods":["Ville-Marie"],"longitude":-73.558,"state":"QC","stars":4,"latitude":45.514,"cat":"Italian"},{"business_id":"l9JvQhr9-ktjuFQOnchFmA","categories":["Restaurants","Italian"],"city":"Montréal","review_count":39,"name":"Lombardi Restaurant","neighborhoods":["Plateau-Mont-Royal"],"longitude":-73.5759,"state":"QC","stars":3.5,"latitude":45.5209,"cat":"Italian"},{"business_id":"dI2cE7lpfZgLYx5NkX50wA","categories":["Restaurants","Italian"],"city":"Montréal","review_count":8,"name":"Vinizza","neighborhoods":["Rosemont-La Petite-Patrie"],"longitude":-73.6167,"state":"QC","stars":4.5,"latitude":45.5357,"cat":"Italian"},{"business_id":"O5Wbhz5jH4VL70WNsYEGnw","categories":["Restaurants","Italian"],"city":"Montréal","review_count":77,"name":"Dolcetto & Co","neighborhoods":["Ville-Marie"],"longitude":-73.555,"state":"QC","stars":4,"latitude":45.5035,"cat":"Italian"},{"business_id":"aje-z9q4_8iOzET4I93Hpg","categories":["Restaurants","Pizza","Italian"],"city":"Montréal","review_count":9,"name":"La Bella Italiana","neighborhoods":["Saint-Léonard"],"longitude":-73.5798,"state":"QC","stars":4,"latitude":45.5858,"cat":"Italian"},{"business_id":"NSLu0tQxjeRI8c1q8eEQJA","categories":["Restaurants","Italian"],"city":"Montréal","review_count":3,"name":"Restaurant Osteria Pranzo","neighborhoods":["Ahunstic-Cartierville"],"longitude":-73.6381,"state":"QC","stars":5,"latitude":45.5766,"cat":"Italian"},{"business_id":"Ytcnnwgl-0Mok_-Pdz5wEQ","categories":["Tapas/Small Plates","Italian","Pizza","Restaurants"],"city":"Montréal","review_count":28,"name":"Mangiafoco","neighborhoods":["Ville-Marie"],"longitude":-73.5546,"state":"QC","stars":4,"latitude":45.5042,"cat":"Italian"},{"business_id":"yrDBLxE2WBcDo2V4jqgt2Q","categories":["Thai","Restaurants","Italian"],"city":"Montréal","review_count":12,"name":"Tartares du Marché 27 Express","neighborhoods":["Ville-Marie"],"longitude":-73.5684,"state":"QC","stars":4.5,"latitude":45.504,"cat":"Italian"},{"business_id":"hYBXS7CsQYFofLfTDT2ZLg","categories":["Restaurants","Italian"],"city":"Montréal","review_count":5,"name":"Wood35 Restaurant Bar","neighborhoods":["Plateau-Mont-Royal"],"longitude":-73.5708,"state":"QC","stars":3,"latitude":45.513,"cat":"Italian"},{"business_id":"Gd24R5M3-sxt3TfsoplmgA","categories":["Restaurants","Italian"],"city":"Montréal","review_count":8,"name":"Ottavio","neighborhoods":["Saint-Léonard"],"longitude":-73.5708,"state":"QC","stars":3.5,"latitude":45.5957,"cat":"Italian"},{"business_id":"QRIeopEOpwMjhJa_Nu1j3Q","categories":["Restaurants","Italian"],"city":"Montréal","review_count":17,"name":"Portovino","neighborhoods":["Mont-Royal"],"longitude":-73.6572,"state":"QC","stars":3,"latitude":45.4932,"cat":"Italian"},{"business_id":"wzM1SHE8urf8otgGY-fsiQ","categories":["Restaurants","Italian"],"city":"Montréal","review_count":10,"name":"Hostaria","neighborhoods":["Rosemont-La Petite-Patrie"],"longitude":-73.6099,"state":"QC","stars":4,"latitude":45.5339,"cat":"Italian"},{"business_id":"HQSbnP7ZDVSHe-yNTQiI8Q","categories":["Restaurants","Italian"],"city":"Montréal","review_count":12,"name":"Brama","neighborhoods":["Rosemont-La Petite-Patrie"],"longitude":-73.6121,"state":"QC","stars":5,"latitude":45.532,"cat":"Italian"},{"business_id":"K9dgonPjQa0KHyrTEVAR2A","categories":["Delis","Italian","Restaurants"],"city":"Montréal","review_count":9,"name":"Bello Deli","neighborhoods":["Ville-Marie"],"longitude":-73.5557,"state":"QC","stars":4.5,"latitude":45.5007,"cat":"Italian"},{"business_id":"nid3ijaDDdeXmwBKx41A4g","categories":["Restaurants","Pizza","Italian"],"city":"Montréal","review_count":13,"name":"Sapori Di Napoli","neighborhoods":["Ahunstic-Cartierville"],"longitude":-73.6869,"state":"QC","stars":4.5,"latitude":45.541,"cat":"Italian"},{"business_id":"SSt0xNoYdwtMOp4CYuvMbA","categories":["Restaurants","Italian"],"city":"Montréal","review_count":9,"name":"Boccondivino","neighborhoods":["Ville-Marie"],"longitude":-73.5531,"state":"QC","stars":4.5,"latitude":45.5058,"cat":"Italian"},{"business_id":"wbhMdFpzFvh10_0RlAv6dg","categories":["Italian","Pizza","Restaurants"],"city":"Montréal","review_count":20,"name":"Artigiani Pizzeria & Cucina","neighborhoods":["Plateau-Mont-Royal"],"longitude":-73.5848,"state":"QC","stars":4,"latitude":45.525,"cat":"Italian"},{"business_id":"jgdpC3omoMamyhyJ_97__g","categories":["Italian","Pizza","Restaurants"],"city":"Montréal","review_count":10,"name":"Tomato","neighborhoods":["Plateau-Mont-Royal"],"longitude":-73.5805,"state":"QC","stars":2.5,"latitude":45.5226,"cat":"Italian"},{"business_id":"ZxfD_uFfWgDMmtnX2jHFIQ","categories":["Italian","Cafes","Restaurants"],"city":"Montréal","review_count":6,"name":"Drogheria Fine","neighborhoods":["Rosemont-La Petite-Patrie"],"longitude":-73.6069,"state":"QC","stars":4.5,"latitude":45.5317,"cat":"Italian"},{"business_id":"jf-D-0G0mRDEypvZ7yX-eg","categories":["Food","Desserts","Restaurants","Ice Cream & Frozen Yogurt","Italian"],"city":"Montréal","review_count":17,"name":"Chez Vincenzo","neighborhoods":["Villeray-Saint-Michel-Parc-Extension"],"longitude":-73.6225,"state":"QC","stars":4.5,"latitude":45.5415,"cat":"Italian"},{"business_id":"6Tv28Sx8wKRku3v_WtSLiA","categories":["Breakfast & Brunch","Italian","French","Restaurants"],"city":"Montréal","review_count":24,"name":"La Récolte Espace Local","neighborhoods":["Rosemont-La Petite-Patrie"],"longitude":-73.6103,"state":"QC","stars":4.5,"latitude":45.5388,"cat":"Italian"},{"business_id":"tD3qVZ0v-CiV3PWYOyOZDQ","categories":["Restaurants","Italian"],"city":"Montréal","review_count":4,"name":"Via Marcello","neighborhoods":["Saint-Laurent"],"longitude":-73.6871,"state":"QC","stars":3,"latitude":45.5107,"cat":"Italian"},{"business_id":"lqP9T2YRLLqgJ-5AYwTfCA","categories":["Food","Delicatessen","Restaurants","Italian"],"city":"Montréal","review_count":7,"name":"Officina Travaglini et Chef Gadeau","neighborhoods":["Rosemont-La Petite-Patrie"],"longitude":-73.6144,"state":"QC","stars":4.5,"latitude":45.5347,"cat":"Italian"},{"business_id":"v_6CD6s41aBPvygTJRK5ew","categories":["Restaurants","Italian"],"city":"Montréal","review_count":34,"name":"Impasto","neighborhoods":["Rosemont-La Petite-Patrie"],"longitude":-73.6133,"state":"QC","stars":4.5,"latitude":45.5332,"cat":"Italian"},{"business_id":"sXoQ3R_q7bfxPEsy7eNRlg","categories":["Restaurants","Pizza","Italian"],"city":"Montréal","review_count":6,"name":"Pizzeria Geppetto","neighborhoods":["Rosemont-La Petite-Patrie"],"longitude":-73.5913,"state":"QC","stars":4.5,"latitude":45.549,"cat":"Italian"},{"business_id":"H4AaS2TRnBo98icZuCQXTg","categories":["Restaurants","Italian"],"city":"Montréal","review_count":10,"name":"Barcola Bistro","neighborhoods":["Plateau-Mont-Royal"],"longitude":-73.603,"state":"QC","stars":3.5,"latitude":45.5227,"cat":"Italian"},{"business_id":"3OqVb9vKdrmR-6SdEyZfbA","categories":["Restaurants","Italian"],"city":"Montréal","review_count":34,"name":"Le Richmond","neighborhoods":["Sud-Ouest"],"longitude":-73.5668,"state":"QC","stars":3.5,"latitude":45.4887,"cat":"Italian"},{"business_id":"039MksBX4qnW6v_wOpA2Ew","categories":["Restaurants","Italian"],"city":"Montréal","review_count":21,"name":"Le Ballpark","neighborhoods":["Rosemont-La Petite-Patrie"],"longitude":-73.6127,"state":"QC","stars":4,"latitude":45.5313,"cat":"Italian"},{"business_id":"HjzjfeJVTwRa56Boatbe_w","categories":["Italian","French","Canadian (New)","Restaurants"],"city":"Montréal","review_count":63,"name":"Le Serpent","neighborhoods":["Ville-Marie"],"longitude":-73.5571,"state":"QC","stars":4.5,"latitude":45.4976,"cat":"Italian"},{"business_id":"DkLvlCP1RvauIoT5tX6VMg","categories":["Restaurants","Italian"],"city":"Montréal","review_count":6,"name":"Pasta Tutti Giorni","neighborhoods":["Ville-Marie"],"longitude":-73.562,"state":"QC","stars":4.5,"latitude":45.5091,"cat":"Italian"},{"business_id":"SSJhjI4sunPL7-FwGdRGsQ","categories":["Restaurants","Italian"],"city":"Montréal","review_count":5,"name":"Le Saint Jacques","neighborhoods":["Mercier-Hochelaga-Maisonneuve"],"longitude":-73.55,"state":"QC","stars":4.5,"latitude":45.5781,"cat":"Italian"},{"business_id":"xyw_YQwYDZRdUBEnVRcILg","categories":["Italian","Mediterranean","French","Restaurants"],"city":"Montréal","review_count":3,"name":"Restaurant Deuxlux","neighborhoods":["Rosemont-La Petite-Patrie"],"longitude":-73.6072,"state":"QC","stars":2.5,"latitude":45.5372,"cat":"Italian"},{"business_id":"4myjV5cXVGNDuDIRQ190jw","categories":["Restaurants","Italian"],"city":"Montréal","review_count":19,"name":"Salmigondis","neighborhoods":["Rosemont-La Petite-Patrie"],"longitude":-73.6142,"state":"QC","stars":4.5,"latitude":45.5337,"cat":"Italian"},{"business_id":"z0nPblxBrINTyIOjw7LiYA","categories":["Pizza","Bars","Restaurants","Nightlife","Italian"],"city":"Montréal","review_count":18,"name":"Industria Brasserie Italienne","neighborhoods":["Sud-Ouest"],"longitude":-73.5564,"state":"QC","stars":3.5,"latitude":45.493,"cat":"Italian"},{"business_id":"BOSKvLfYdBaEIYBqvHp5Pg","categories":["Bars","Tapas/Small Plates","Wine Bars","Nightlife","Italian","Restaurants"],"city":"Montréal","review_count":6,"name":"Épik","neighborhoods":["Ville-Marie"],"longitude":-73.5552,"state":"QC","stars":5,"latitude":45.5031,"cat":"Italian"},{"business_id":"WLAUCf347F61orRqMyoJ3w","categories":["Restaurants","Pizza","Italian"],"city":"Montréal","review_count":3,"name":"La Piazza","neighborhoods":["Saint-Laurent"],"longitude":-73.7117,"state":"QC","stars":4.5,"latitude":45.5135,"cat":"Italian"},{"business_id":"9LCPVIFSmMJcumu6JuCR7Q","categories":["Restaurants","Italian"],"city":"Montréal","review_count":4,"name":"Pâtes Bol","neighborhoods":["Rosemont-La Petite-Patrie"],"longitude":-73.6028,"state":"QC","stars":3.5,"latitude":45.5363,"cat":"Italian"},{"business_id":"Oe7tSP5LW4EJZtWrmn8JQw","categories":["Restaurants","Italian"],"city":"Montréal","review_count":6,"name":"Bistro Amerigo","neighborhoods":["Notre-Dame-de-Grâce"],"longitude":-73.6279,"state":"QC","stars":4,"latitude":45.47,"cat":"Italian"},{"business_id":"lHqfi_3r4Q3SX6rlfAFg7g","categories":["Bars","Restaurants","Cocktail Bars","Nightlife","Italian"],"city":"Montréal","review_count":40,"name":"Balsam Inn","neighborhoods":["Ville-Marie"],"longitude":-73.5715,"state":"QC","stars":4,"latitude":45.5005,"cat":"Italian"},{"business_id":"Qstn_8U1ifSl-HU-ksJrYQ","categories":["Italian","Pizza","Restaurants"],"city":"Montréal","review_count":5,"name":"Pizzeria Martina","neighborhoods":["Ville-Marie"],"longitude":-73.5813,"state":"QC","stars":4,"latitude":45.4829,"cat":"Italian"},{"business_id":"Vzk3EnUqzBcCdrU1RjpNWw","categories":["Food","Beer, Wine & Spirits","Restaurants","Italian"],"city":"Montréal","review_count":6,"name":"Vicolo Restaurant & Bar","neighborhoods":["Ville-Marie"],"longitude":-73.5741,"state":"QC","stars":2,"latitude":45.4951,"cat":"Italian"},{"business_id":"iRO3m5Ubz5DLfwm9bpCkBg","categories":["Restaurants","Mediterranean","Italian"],"city":"Montréal","review_count":8,"name":"Restaurant MKT","neighborhoods":["Ville-Marie"],"longitude":-73.5751,"state":"QC","stars":4.5,"latitude":45.5019,"cat":"Italian"},{"business_id":"8g_wktxfwaJs73OWehI9TA","categories":["Italian","Cafes","Restaurants"],"city":"Montréal","review_count":14,"name":"Le Bistro Du Magasin Général Du Vieux-Montréal","neighborhoods":["Ville-Marie"],"longitude":-73.5532,"state":"QC","stars":4,"latitude":45.5054,"cat":"Italian"},{"business_id":"U-WLmC1_2Ji-WC8TFvRX-w","categories":["Italian","Pizza","Restaurants"],"city":"Montréal","review_count":18,"name":"Amelia's","neighborhoods":["Plateau-Mont-Royal"],"longitude":-73.5727,"state":"QC","stars":4,"latitude":45.5107,"cat":"Italian"},{"business_id":"yrWYiA_CXEeCBmlV4ZiLvQ","categories":["Italian","Pizza","Restaurants"],"city":"Montréal","review_count":34,"name":"Enoteca Mozza","neighborhoods":["Ville-Marie"],"longitude":-73.5704,"state":"QC","stars":3,"latitude":45.5019,"cat":"Italian"},{"business_id":"kVASS_YSFxUPpAl3lEfqOw","categories":["Restaurants","French","Italian"],"city":"Montréal","review_count":6,"name":"Il Bazzali","neighborhoods":["Rosemont-La Petite-Patrie"],"longitude":-73.6062,"state":"QC","stars":5,"latitude":45.5328,"cat":"Italian"},{"business_id":"pyH_BIKod12-Vg-UUAVhlg","categories":["Restaurants","Mediterranean","Pizza","Italian"],"city":"Montréal","review_count":30,"name":"Corso 1471","neighborhoods":["Ville-Marie"],"longitude":-73.5772,"state":"QC","stars":3,"latitude":45.4981,"cat":"Italian"},{"business_id":"g9TPol72x_9rmycL01MLnw","categories":["Bakeries","Food","Restaurants","Cafes","Italian"],"city":"Montréal","review_count":12,"name":"Farine","neighborhoods":["Plateau-Mont-Royal"],"longitude":-73.6,"state":"QC","stars":4.5,"latitude":45.5244,"cat":"Italian"},{"business_id":"dVQ-dc8sStfx7BXIOIs6NA","categories":["Food","Specialty Food","Restaurants","Comfort Food","Italian"],"city":"Montréal","review_count":4,"name":"Lasagne Du Plateau","neighborhoods":["Plateau-Mont-Royal"],"longitude":-73.5947,"state":"QC","stars":4,"latitude":45.5192,"cat":"Italian"},{"business_id":"gZqibHT8CGVP_tKsNbwl1A","categories":["Italian","Bars","Pizza","Nightlife","Restaurants"],"city":"Montréal","review_count":6,"name":"Un Autre Restaurant","neighborhoods":["Plateau-Mont-Royal"],"longitude":-73.601,"state":"QC","stars":5,"latitude":45.5232,"cat":"Italian"},{"business_id":"CJ6qMw-jGY5Gs4H1JiT-vw","categories":["Food","Desserts","Restaurants","Canadian (New)","Italian"],"city":"Montréal","review_count":18,"name":"O Noir Restaurant","neighborhoods":["Plateau-Mont-Royal"],"longitude":-73.5714,"state":"QC","stars":5,"latitude":45.5151,"cat":"Italian"},{"business_id":"8f4Xh3FixhspcbSjpsEMbA","categories":["Restaurants","Pizza","Italian"],"city":"Montréal","review_count":5,"name":"Bistro Silla","neighborhoods":["Ville-Marie"],"longitude":-73.5564,"state":"QC","stars":2.5,"latitude":45.5053,"cat":"Italian"},{"business_id":"OCJnXyn2pYgt_EOHbVo_AA","categories":["Italian","Cafes","Restaurants"],"city":"Montréal","review_count":6,"name":"Lucci Café","neighborhoods":["Sud-Ouest"],"longitude":-73.5671,"state":"QC","stars":4.5,"latitude":45.4872,"cat":"Italian"},{"business_id":"Q2vNFMhsP2X8YKzi3vAYsg","categories":["Restaurants","Italian"],"city":"Montréal","review_count":4,"name":"Le Richmond - Marché Italien","neighborhoods":["Sud-Ouest"],"longitude":-73.5663,"state":"QC","stars":4,"latitude":45.4884,"cat":"Italian"},{"business_id":"hUITsR8ud__dq8j3nXgyAg","categories":["Restaurants","Sandwiches","Italian"],"city":"Montréal","review_count":12,"name":"Porchetta","neighborhoods":["Rosemont-La Petite-Patrie"],"longitude":-73.6145,"state":"QC","stars":4,"latitude":45.5331,"cat":"Italian"},{"business_id":"Ei7sdBVvNyem_SCxaAnPdA","categories":["Restaurants","Italian"],"city":"Montréal","review_count":4,"name":"Luciano d'Orazio","neighborhoods":["Rosemont-La Petite-Patrie"],"longitude":-73.604,"state":"QC","stars":5,"latitude":45.5403,"cat":"Italian"},{"business_id":"SF-bVnqDTFBwy07bxeD-Jg","categories":["Restaurants","Italian"],"city":"Montréal","review_count":3,"name":"Boccone","neighborhoods":["Rosemont-La Petite-Patrie"],"longitude":-73.6121,"state":"QC","stars":5,"latitude":45.532,"cat":"Italian"},{"business_id":"S8usMVfg7y7EkSO0Xge8EQ","categories":["Restaurants","Pizza","Italian"],"city":"Montréal","review_count":14,"name":"Fiorellino","neighborhoods":["Ville-Marie"],"longitude":-73.5635,"state":"QC","stars":3,"latitude":45.5029,"cat":"Italian"},{"business_id":"_ZGgROII4bTkc57decF85A","categories":["Italian","Pizza","Restaurants"],"city":"Montréal","review_count":6,"name":"Bacaro Urban Pizzeria","neighborhoods":["Notre-Dame-de-Grâce"],"longitude":-73.6262,"state":"QC","stars":3,"latitude":45.4717,"cat":"Italian"},{"business_id":"pvJLYIPXsIQeQHBdvpDJCA","categories":["Mexican","Restaurants"],"city":"Montréal","review_count":14,"name":"Restaurant le Cactus","neighborhoods":["Plateau-Mont-Royal"],"longitude":-73.5823,"state":"QC","stars":3.5,"latitude":45.5238,"cat":"Mexican"},{"business_id":"4_s27kzUyuPwGQyz8NGuSg","categories":["Mexican","Restaurants"],"city":"Montréal","review_count":16,"name":"Maria Bonita","neighborhoods":["Plateau-Mont-Royal"],"longitude":-73.5946,"state":"QC","stars":4.5,"latitude":45.5257,"cat":"Mexican"},{"business_id":"kpW9AagA1yinv2iQIhZ1yQ","categories":["Mexican","Tex-Mex","Restaurants"],"city":"Montréal","review_count":18,"name":"La Taqueria Mexicaine","neighborhoods":["Plateau-Mont-Royal"],"longitude":-73.5837,"state":"QC","stars":3.5,"latitude":45.5187,"cat":"Mexican"},{"business_id":"Ec7aCc8MdT0gGpZeoVpPwA","categories":["Mexican","Restaurants"],"city":"Montréal","review_count":15,"name":"La Guadalupe Mexicain","neighborhoods":["Ville-Marie"],"longitude":-73.5547,"state":"QC","stars":4,"latitude":45.531,"cat":"Mexican"},{"business_id":"lTS2DQUO5HpDbF6vvr50hw","categories":["Mexican","Restaurants"],"city":"Montréal","review_count":13,"name":"Mañana","neighborhoods":["Plateau-Mont-Royal"],"longitude":-73.5693,"state":"QC","stars":3.5,"latitude":45.518,"cat":"Mexican"},{"business_id":"SQ2yRmUEev5rWQBjFWVssQ","categories":["Mexican","Restaurants"],"city":"Montréal","review_count":47,"name":"3 Amigos","neighborhoods":["Ville-Marie"],"longitude":-73.563,"state":"QC","stars":2.5,"latitude":45.515,"cat":"Mexican"},{"business_id":"0wO_vZKvKGd6JFAnV7h3-Q","categories":["Mexican","Restaurants"],"city":"Montréal","review_count":19,"name":"Casa de Mateo","neighborhoods":["Ville-Marie"],"longitude":-73.5563,"state":"QC","stars":2.5,"latitude":45.5033,"cat":"Mexican"},{"business_id":"x_wGI7BzF88vCm791evO6w","categories":["Mexican","Restaurants"],"city":"Montréal","review_count":11,"name":"Restaurant El Amigo","neighborhoods":["Rosemont-La Petite-Patrie"],"longitude":-73.6113,"state":"QC","stars":4.5,"latitude":45.5325,"cat":"Mexican"},{"business_id":"xTXMD6k3QPjiblnFFG3TvQ","categories":["Mexican","Restaurants"],"city":"Montréal","review_count":17,"name":"Chipotle & Jalapeño","neighborhoods":["Ville-Marie"],"longitude":-73.558,"state":"QC","stars":3.5,"latitude":45.5181,"cat":"Mexican"},{"business_id":"eOEDf0ravlF9FRDsNW8K0A","categories":["Mexican","Tex-Mex","Restaurants"],"city":"Montréal","review_count":122,"name":"3 Amigos","neighborhoods":["Ville-Marie"],"longitude":-73.5791,"state":"QC","stars":2.5,"latitude":45.4944,"cat":"Mexican"},{"business_id":"kBtdEbJoBLjgEgDXBJ9v7g","categories":["Mexican","Restaurants"],"city":"Montréal","review_count":25,"name":"Restaurant Limon","neighborhoods":["Sud-Ouest"],"longitude":-73.5748,"state":"QC","stars":3,"latitude":45.483,"cat":"Mexican"},{"business_id":"Y9Qv3BYtJeoHjBcWa25u1w","categories":["Mexican","Restaurants"],"city":"Montréal","review_count":50,"name":"Mesa 14","neighborhoods":["Ville-Marie"],"longitude":-73.577,"state":"QC","stars":3.5,"latitude":45.4971,"cat":"Mexican"},{"business_id":"91tVC0j1WjKotqeBV0wg9A","categories":["Mexican","Restaurants"],"city":"Montréal","review_count":3,"name":"Taco Supreme","neighborhoods":["Ville-Marie"],"longitude":-73.5715,"state":"QC","stars":2,"latitude":45.5028,"cat":"Mexican"},{"business_id":"kvrITnWyepqlf1UZl2caCQ","categories":["Mexican","Restaurants"],"city":"Montréal","review_count":74,"name":"Carlos & Pepes","neighborhoods":["Ville-Marie"],"longitude":-73.5737,"state":"QC","stars":2,"latitude":45.5002,"cat":"Mexican"},{"business_id":"1eLPQ67ayM5JoV7O7mn0kQ","categories":["Mexican","Restaurants"],"city":"Montréal","review_count":27,"name":"Restaurant Amaranto","neighborhoods":["Notre-Dame-de-Grâce"],"longitude":-73.6264,"state":"QC","stars":4.5,"latitude":45.4714,"cat":"Mexican"},{"business_id":"SAtmVwCGyEi-9u8258pSxw","categories":["Vegetarian","Mexican","Restaurants"],"city":"Montréal","review_count":64,"name":"Burritoville","neighborhoods":["Ville-Marie"],"longitude":-73.5785,"state":"QC","stars":4,"latitude":45.4977,"cat":"Mexican"},{"business_id":"zrd2LbYSvBIAivyicaDZjw","categories":["Latin American","Mexican","Restaurants"],"city":"Montréal","review_count":23,"name":"El Zaziummm","neighborhoods":["Plateau-Mont-Royal"],"longitude":-73.5843,"state":"QC","stars":2.5,"latitude":45.5327,"cat":"Mexican"},{"business_id":"t1RDIX-MuTqCXxIYvgD6jg","categories":["Mexican","Restaurants"],"city":"Montréal","review_count":6,"name":"Koka Loka","neighborhoods":["Plateau-Mont-Royal"],"longitude":-73.5802,"state":"QC","stars":2.5,"latitude":45.527,"cat":"Mexican"},{"business_id":"l2VDG2OSDQiw5l_MLPx8IQ","categories":["Mexican","Restaurants"],"city":"Montréal","review_count":4,"name":"Tamales","neighborhoods":["Plateau-Mont-Royal"],"longitude":-73.5714,"state":"QC","stars":3,"latitude":45.5152,"cat":"Mexican"},{"business_id":"u9HjSlbVxJ-X0kF-eg2kMQ","categories":["Mexican","Restaurants"],"city":"Montréal","review_count":53,"name":"Tequila Taco House","neighborhoods":["Plateau-Mont-Royal","Ville-Marie"],"longitude":-73.5693,"state":"QC","stars":3.5,"latitude":45.5126,"cat":"Mexican"},{"business_id":"PXBdQyBdXtuANHKnmuLlRg","categories":["Dive Bars","Bars","Mexican","Nightlife","Restaurants"],"city":"Montréal","review_count":37,"name":"Nacho Libre","neighborhoods":["Rosemont-La Petite-Patrie"],"longitude":-73.6025,"state":"QC","stars":3.5,"latitude":45.5367,"cat":"Mexican"},{"business_id":"asPaXeGsLdbe17rtAaQ4BQ","categories":["Mexican","Restaurants"],"city":"Montréal","review_count":14,"name":"Café Cantina","neighborhoods":["Sud-Ouest"],"longitude":-73.5622,"state":"QC","stars":4,"latitude":45.4827,"cat":"Mexican"},{"business_id":"CZCPO_UAI0fW2tsAxiMBdg","categories":["Mexican","Restaurants"],"city":"Montréal","review_count":12,"name":"Restaurant Itacate","neighborhoods":["Rosemont-La Petite-Patrie"],"longitude":-73.6079,"state":"QC","stars":4,"latitude":45.5309,"cat":"Mexican"},{"business_id":"dxnVC1faiD1jK73ivRAjaA","categories":["Food","Mexican","Food Trucks","Restaurants"],"city":"Montréal","review_count":81,"name":"Grumman78","neighborhoods":["Sud-Ouest"],"longitude":-73.5923,"state":"QC","stars":3.5,"latitude":45.4738,"cat":"Mexican"},{"business_id":"vmYJoSAqvZDI3nYArOkH6g","categories":["Mexican","Restaurants"],"city":"Montréal","review_count":42,"name":"La Matraca","neighborhoods":["Plateau-Mont-Royal"],"longitude":-73.5844,"state":"QC","stars":3.5,"latitude":45.5247,"cat":"Mexican"},{"business_id":"3iVnX0HpaQEPFSlWVZ37HA","categories":["Gluten-Free","Mexican","Restaurants"],"city":"Montréal","review_count":62,"name":"Ta Chido","neighborhoods":["Plateau-Mont-Royal"],"longitude":-73.6032,"state":"QC","stars":4,"latitude":45.5227,"cat":"Mexican"},{"business_id":"xDkOGclosu2DwStYv4KJ-g","categories":["Food","Delicatessen","Mexican","Restaurants"],"city":"Montréal","review_count":3,"name":"Tortilleria Maya","neighborhoods":["Rosemont-La Petite-Patrie"],"longitude":-73.6151,"state":"QC","stars":4,"latitude":45.5348,"cat":"Mexican"},{"business_id":"6yKQXCTaVC1zWM7JDK1Kfg","categories":["Mexican","Restaurants"],"city":"Montréal","review_count":10,"name":"Chez Frida","neighborhoods":["Côte-des-Neiges"],"longitude":-73.6269,"state":"QC","stars":3,"latitude":45.4986,"cat":"Mexican"},{"business_id":"tCoJAPVFsaaO__SSNfweHA","categories":["Mexican","Restaurants"],"city":"Montréal","review_count":44,"name":"M4 Burritos","neighborhoods":["Ville-Marie"],"longitude":-73.5651,"state":"QC","stars":3,"latitude":45.5158,"cat":"Mexican"},{"business_id":"dELs0VO0zM0KphfwwVpO9A","categories":["Bars","Latin American","Mexican","Cocktail Bars","Nightlife","Restaurants"],"city":"Montréal","review_count":35,"name":"Cartel","neighborhoods":["Plateau-Mont-Royal"],"longitude":-73.5957,"state":"QC","stars":4,"latitude":45.5226,"cat":"Mexican"},{"business_id":"P4MFGujn3kXiyUfkih7GoQ","categories":["Mexican","Restaurants"],"city":"Montréal","review_count":5,"name":"Cochinita Pibil","neighborhoods":["Rosemont-La Petite-Patrie"],"longitude":-73.6146,"state":"QC","stars":4.5,"latitude":45.5364,"cat":"Mexican"},{"business_id":"Dy_iGVe9RpOLw14Ww9_jaw","categories":["Mexican","Restaurants"],"city":"Montréal","review_count":16,"name":"Le Petit Coin du Mexique","neighborhoods":["Villeray-Saint-Michel-Parc-Extension"],"longitude":-73.6027,"state":"QC","stars":3,"latitude":45.5531,"cat":"Mexican"},{"business_id":"G6-biEr3zPEK9_ocVnVxOg","categories":["Mexican","Restaurants"],"city":"Montréal","review_count":4,"name":"Viva Mexico","neighborhoods":["Villeray-Saint-Michel-Parc-Extension"],"longitude":-73.6173,"state":"QC","stars":5,"latitude":45.5424,"cat":"Mexican"},{"business_id":"q2dzG2MoRRW2vgPwxUwl6Q","categories":["Mexican","Restaurants"],"city":"Montréal","review_count":4,"name":"Casa Figueroa","neighborhoods":["Rosemont-La Petite-Patrie"],"longitude":-73.5866,"state":"QC","stars":5,"latitude":45.5547,"cat":"Mexican"},{"business_id":"oanDCxyRA12TNIGFbThY3w","categories":["Mexican","Restaurants"],"city":"Montréal","review_count":44,"name":"Burrito Shop","neighborhoods":["Plateau-Mont-Royal"],"longitude":-73.574,"state":"QC","stars":3.5,"latitude":45.5146,"cat":"Mexican"},{"business_id":"WLCOlElse_N-Q9HFfGLBfQ","categories":["Gluten-Free","Mexican","Restaurants"],"city":"Montréal","review_count":49,"name":"Maïs","neighborhoods":["Plateau-Mont-Royal"],"longitude":-73.5977,"state":"QC","stars":3.5,"latitude":45.5253,"cat":"Mexican"},{"business_id":"lR-W8lgodXkydiU6_AHiiA","categories":["Mexican","Restaurants"],"city":"Montréal","review_count":18,"name":"La Tamalera","neighborhoods":["Plateau-Mont-Royal"],"longitude":-73.5968,"state":"QC","stars":4.5,"latitude":45.5213,"cat":"Mexican"},{"business_id":"MKwuqXigIdGD9AsVboUBiA","categories":["Latin American","Mexican","Restaurants"],"city":"Montréal","review_count":103,"name":"El Rey Del Taco","neighborhoods":["Rosemont-La Petite-Patrie"],"longitude":-73.616,"state":"QC","stars":4,"latitude":45.5364,"cat":"Mexican"},{"business_id":"FfJnaxfd18NMB5WP41OQdQ","categories":["Mexican","Restaurants"],"city":"Montréal","review_count":21,"name":"M4 Burritos Université Concordia","neighborhoods":["Ville-Marie"],"longitude":-73.5792,"state":"QC","stars":3,"latitude":45.4959,"cat":"Mexican"},{"business_id":"Ykd9SxLkYXBkdP21Gtn5VQ","categories":["Mexican","Restaurants"],"city":"Montréal","review_count":3,"name":"Pitaya Maya","neighborhoods":["Pierrefonds-Roxboro"],"longitude":-73.8498,"state":"QC","stars":2.5,"latitude":45.4882,"cat":"Mexican"},{"business_id":"VRz6BfYLRVWRCEfFBV-vZw","categories":["Mexican","Restaurants"],"city":"Montréal","review_count":3,"name":"Charro's Restaurant","neighborhoods":["Rosemont-La Petite-Patrie"],"longitude":-73.611,"state":"QC","stars":4.5,"latitude":45.5397,"cat":"Mexican"},{"business_id":"9eI2sC2aw1gJ2RiMCUaoWw","categories":["Mexican","Restaurants"],"city":"Montréal","review_count":8,"name":"Taco & Loco","neighborhoods":["Ville-Marie"],"longitude":-73.554,"state":"QC","stars":3.5,"latitude":45.521,"cat":"Mexican"},{"business_id":"HtLC-ETA8mTYUWDboDiJTQ","categories":["Mexican","Latin American","Caribbean","Restaurants"],"city":"Montréal","review_count":46,"name":"Ceviches","neighborhoods":["Plateau-Mont-Royal"],"longitude":-73.5766,"state":"QC","stars":4.5,"latitude":45.5177,"cat":"Mexican"},{"business_id":"9f19IPvL2n9my8IKJ64SNQ","categories":["Mexican","Restaurants"],"city":"Montréal","review_count":12,"name":"Restaurant El Sabor de México","neighborhoods":["Verdun"],"longitude":-73.5678,"state":"QC","stars":4,"latitude":45.456,"cat":"Mexican"},{"business_id":"4aWKU6j7aCAWqXOKAvLFyg","categories":["Mexican","Restaurants"],"city":"Montréal","review_count":21,"name":"Super Taco","neighborhoods":["Rosemont-La Petite-Patrie"],"longitude":-73.6111,"state":"QC","stars":4,"latitude":45.5379,"cat":"Mexican"},{"business_id":"HpcZgeD_jIAX_2sFmezLAg","categories":["Mexican","Restaurants"],"city":"Montréal","review_count":5,"name":"Jimmy Guaco's","neighborhoods":["Ville-Marie"],"longitude":-73.5719,"state":"QC","stars":4,"latitude":45.4993,"cat":"Mexican"},{"business_id":"I8w0X-51CLuygi1WODYDzQ","categories":["Mexican","Sandwiches","Restaurants"],"city":"Montréal","review_count":37,"name":"T&T Tacos Et Tortas","neighborhoods":["Plateau-Mont-Royal"],"longitude":-73.5824,"state":"QC","stars":4,"latitude":45.5175,"cat":"Mexican"},{"business_id":"1Dba1fUiAMSpPmR0pI05ag","categories":["Mexican","Restaurants"],"city":"Montréal","review_count":10,"name":"Azteca","neighborhoods":["Villeray-Saint-Michel-Parc-Extension"],"longitude":-73.6155,"state":"QC","stars":4,"latitude":45.5419,"cat":"Mexican"},{"business_id":"ZjAmCa6lp7ViDPSmOJwfaA","categories":["Mexican","Restaurants"],"city":"Montréal","review_count":6,"name":"Velo Burrito","neighborhoods":["Rosemont-La Petite-Patrie"],"longitude":-73.608,"state":"QC","stars":4,"latitude":45.5306,"cat":"Mexican"},{"business_id":"UMEO57Rwl4_wsGm9KTbjtQ","categories":["Mexican","Restaurants"],"city":"Montréal","review_count":15,"name":"Fortune","neighborhoods":["Rosemont-La Petite-Patrie"],"longitude":-73.6088,"state":"QC","stars":4.5,"latitude":45.5303,"cat":"Mexican"},{"business_id":"gPWN2VKeqdWXT80P3FTV-A","categories":["Mexican","Restaurants"],"city":"Montréal","review_count":29,"name":"Taco Tijuana","neighborhoods":["Notre-Dame-de-Grâce"],"longitude":-73.6191,"state":"QC","stars":4,"latitude":45.469,"cat":"Mexican"},{"business_id":"x_SvJmKpZMYXFebhQIZlgQ","categories":["Mexican","Restaurants"],"city":"Montréal","review_count":7,"name":"Mee-Ho","neighborhoods":["Rosemont-La Petite-Patrie"],"longitude":-73.6062,"state":"QC","stars":3.5,"latitude":45.5373,"cat":"Mexican"},{"business_id":"ljWjztM0iTuE4uPLEya_HA","categories":["Bars","Mexican","Nightlife","Restaurants"],"city":"Montréal","review_count":54,"name":"Escondite","neighborhoods":["Ville-Marie"],"longitude":-73.568,"state":"QC","stars":4,"latitude":45.503,"cat":"Mexican"},{"business_id":"_Mkp-ZD_TSmLAjR-BmBg7g","categories":["Mexican","Restaurants"],"city":"Montréal","review_count":55,"name":"La Capital Tacos","neighborhoods":["Ville-Marie"],"longitude":-73.5611,"state":"QC","stars":4,"latitude":45.5084,"cat":"Mexican"},{"business_id":"jD_tz3mOdxqXRf4ANG44ww","categories":["Breakfast & Brunch","Mexican","Restaurants"],"city":"Montréal","review_count":24,"name":"Café Mezcal","neighborhoods":["Plateau-Mont-Royal"],"longitude":-73.5713,"state":"QC","stars":4,"latitude":45.5153,"cat":"Mexican"},{"business_id":"ooa_e8Sg04wk6YdYTao_ow","categories":["Mexican","Restaurants"],"city":"Montréal","review_count":19,"name":"Don Taco","neighborhoods":["Ville-Marie"],"longitude":-73.5801,"state":"QC","stars":4,"latitude":45.4931,"cat":"Mexican"},{"business_id":"m-1iip_AWP7Rp5KpJzSzXQ","categories":["Mexican","Restaurants"],"city":"Montréal","review_count":3,"name":"Quesada","neighborhoods":["Côte-des-Neiges"],"longitude":-73.6275,"state":"QC","stars":4.5,"latitude":45.4983,"cat":"Mexican"},{"business_id":"LCaM4_fWmSwsrYr9asXCBw","categories":["Mexican","Tex-Mex","Restaurants"],"city":"Montréal","review_count":13,"name":"M. Burrito","neighborhoods":["Plateau-Mont-Royal"],"longitude":-73.5805,"state":"QC","stars":2.5,"latitude":45.5267,"cat":"Mexican"},{"business_id":"0BgWMs-yBOFIkm9jo803Kg","categories":["Cafes","Mexican","Restaurants"],"city":"Montréal","review_count":34,"name":"Café Frida","neighborhoods":["Sud-Ouest"],"longitude":-73.587,"state":"QC","stars":4.5,"latitude":45.4746,"cat":"Mexican"},{"business_id":"WWEvRjU8PkoQ0b82i9GSFQ","categories":["Mexican","Restaurants"],"city":"Montréal","review_count":20,"name":"Tacos Victor","neighborhoods":["Sud-Ouest"],"longitude":-73.5866,"state":"QC","stars":4,"latitude":45.475,"cat":"Mexican"},{"business_id":"GDTFiF59PtgvABVtAxnGGg","categories":["Mexican","Restaurants"],"city":"Montréal","review_count":5,"name":"Casa de Mateo","neighborhoods":["Notre-Dame-de-Grâce"],"longitude":-73.6267,"state":"QC","stars":3,"latitude":45.4712,"cat":"Mexican"},{"business_id":"ze23vJ-iiDP3VkDo6x0rew","categories":["Mexican","Restaurants"],"city":"Montréal","review_count":9,"name":"Burrito Revolucion","neighborhoods":["Mercier-Hochelaga-Maisonneuve"],"longitude":-73.5428,"state":"QC","stars":3.5,"latitude":45.5484,"cat":"Mexican"},{"business_id":"5M57V8y6FqJgkKWM4_8FsQ","categories":["Latin American","Mexican","Restaurants"],"city":"Montréal","review_count":5,"name":"Burrito Revolucion","neighborhoods":["Sud-Ouest"],"longitude":-73.5799,"state":"QC","stars":3,"latitude":45.48,"cat":"Mexican"},{"business_id":"I-IkOxb--wDOlRpRON6lPA","categories":["Mexican","Restaurants"],"city":"Montréal","review_count":3,"name":"Socialito","neighborhoods":["Plateau-Mont-Royal"],"longitude":-73.5999,"state":"QC","stars":3.5,"latitude":45.525,"cat":"Mexican"},{"business_id":"kzpjcjuRbzY2fJE-qxR-gg","categories":["Bars","Mexican","Nightlife","Restaurants"],"city":"Montréal","review_count":6,"name":"Tacos El Gordos","neighborhoods":["Sud-Ouest"],"longitude":-73.5753,"state":"QC","stars":2,"latitude":45.4827,"cat":"Mexican"},{"business_id":"m-5_nyV6i3mOoDnDsCdK_Q","categories":["Peruvian","Latin American","Restaurants"],"city":"Montréal","review_count":7,"name":"Restaurant Madre","neighborhoods":["Rosemont-La Petite-Patrie"],"longitude":-73.5747,"state":"QC","stars":3.5,"latitude":45.5485,"cat":"American"},{"business_id":"OlCDunuMWqIFdhLitNy8dQ","categories":["Latin American","Colombian","Restaurants"],"city":"Montréal","review_count":6,"name":"Las Palmas Cafeteria","neighborhoods":["Plateau-Mont-Royal"],"longitude":-73.5813,"state":"QC","stars":4.5,"latitude":45.5184,"cat":"American"},{"business_id":"UdJPC-uE0p82ktbnOHP61w","categories":["Delis","American (Traditional)","Diners","Restaurants"],"city":"Montréal","review_count":6,"name":"Restaurant Deno's","neighborhoods":["Ville-Marie"],"longitude":-73.5579,"state":"QC","stars":3,"latitude":45.5127,"cat":"American"},{"business_id":"S2IYRroiPylG4edWB8Jndg","categories":["Latin American","Salvadoran","Restaurants"],"city":"Montréal","review_count":26,"name":"La Carreta","neighborhoods":["Rosemont-La Petite-Patrie"],"longitude":-73.609,"state":"QC","stars":4,"latitude":45.5349,"cat":"American"},{"business_id":"t4D4LssTna6Onhs1z4bAOQ","categories":["American (Traditional)","Restaurants"],"city":"Montréal","review_count":13,"name":"Grain De Folie","neighborhoods":["Plateau-Mont-Royal"],"longitude":-73.5728,"state":"QC","stars":3,"latitude":45.5196,"cat":"American"},{"business_id":"9-I9bK54JmniG56jD2Ohjw","categories":["Greek","American (Traditional)","Restaurants","Italian"],"city":"Montréal","review_count":4,"name":"Hotdogeria Restaurant","neighborhoods":["Plateau-Mont-Royal"],"longitude":-73.5674,"state":"QC","stars":2.5,"latitude":45.533,"cat":"American"},{"business_id":"_qZfxjo5_npoJNmycYG7aA","categories":["Latin American","Salvadoran","Restaurants"],"city":"Montréal","review_count":6,"name":"Restaurant Iris","neighborhoods":["Villeray-Saint-Michel-Parc-Extension"],"longitude":-73.6306,"state":"QC","stars":4.5,"latitude":45.5397,"cat":"American"},{"business_id":"g8VXTBruU3ETO8jVdN0h-Q","categories":["Belgian","American (Traditional)","Restaurants"],"city":"Montréal","review_count":46,"name":"Frite Alors","neighborhoods":["Plateau-Mont-Royal"],"longitude":-73.5709,"state":"QC","stars":3.5,"latitude":45.5132,"cat":"American"},{"business_id":"PVQUcEfGbMAKvdDpfpr2EQ","categories":["Latin American","Pizza","Restaurants"],"city":"Montréal","review_count":6,"name":"Les Deux Fours Restaurant","neighborhoods":["Rosemont-La Petite-Patrie"],"longitude":-73.5994,"state":"QC","stars":2.5,"latitude":45.5513,"cat":"American"},{"business_id":"soeuIa-LKG5hOyfQTtqM0A","categories":["Latin American","Salvadoran","Restaurants"],"city":"Montréal","review_count":15,"name":"Resto Los Planes","neighborhoods":["Rosemont-La Petite-Patrie"],"longitude":-73.611,"state":"QC","stars":4,"latitude":45.5384,"cat":"American"},{"business_id":"HLDnlawJKrWOHNuqcmKbZA","categories":["American (Traditional)","Restaurants"],"city":"Montréal","review_count":8,"name":"Aux Derniers Humains","neighborhoods":["Rosemont-La Petite-Patrie"],"longitude":-73.6122,"state":"QC","stars":4,"latitude":45.5371,"cat":"American"},{"business_id":"7URknxlR46SUaFVqB-6w4A","categories":["Burgers","American (Traditional)","Fast Food","Restaurants"],"city":"Montréal","review_count":3,"name":"Harvey's Restaurants","neighborhoods":["Ahunstic-Cartierville"],"longitude":-73.6446,"state":"QC","stars":3.5,"latitude":45.5377,"cat":"American"},{"business_id":"HsPYsZnx6NHeHF61hkPWug","categories":["Bars","American (Traditional)","Nightlife","Restaurants"],"city":"Montréal","review_count":81,"name":"Else's","neighborhoods":["Plateau-Mont-Royal"],"longitude":-73.5747,"state":"QC","stars":4.5,"latitude":45.5169,"cat":"American"},{"business_id":"Zcf_Ll1bhYZMM-tdMUN9Ow","categories":["Latin American","Restaurants"],"city":"Montréal","review_count":10,"name":"La Chilenita","neighborhoods":["Plateau-Mont-Royal"],"longitude":-73.5852,"state":"QC","stars":3.5,"latitude":45.5177,"cat":"American"},{"business_id":"g_RCTQuhSMJwFfDHKRVOqQ","categories":["American (Traditional)","Restaurants"],"city":"Montréal","review_count":8,"name":"Kilo Restaurant","neighborhoods":["Ville-Marie"],"longitude":-73.5539,"state":"QC","stars":4,"latitude":45.5211,"cat":"American"},{"business_id":"clAJn6wOvL4sDhXuChkDlQ","categories":["Latin American","Restaurants"],"city":"Montréal","review_count":11,"name":"La Chilenita","neighborhoods":["Plateau-Mont-Royal"],"longitude":-73.5766,"state":"QC","stars":4,"latitude":45.5177,"cat":"American"},{"business_id":"u72Lo-LZ2Q-Wp6W5zfS-vg","categories":["American (Traditional)","Restaurants"],"city":"Montréal","review_count":6,"name":"Hard Rock Cafe","neighborhoods":["Ville-Marie"],"longitude":-73.5771,"state":"QC","stars":2,"latitude":45.4977,"cat":"American"},{"business_id":"XXGiq0md7re7zKZ06Ft8mg","categories":["Burgers","American (Traditional)","Diners","Restaurants"],"city":"Montréal","review_count":65,"name":"Mister Steer","neighborhoods":["Ville-Marie"],"longitude":-73.574,"state":"QC","stars":3.5,"latitude":45.4989,"cat":"American"},{"business_id":"1RLGEWT2iU_wYUr6L6QQzg","categories":["Delis","American (Traditional)","Sandwiches","Restaurants"],"city":"Montréal","review_count":63,"name":"Reuben's","neighborhoods":["Ville-Marie"],"longitude":-73.5711,"state":"QC","stars":3.5,"latitude":45.5016,"cat":"American"},{"business_id":"ZlgR0fUI2zbIv7VnpmWObg","categories":["Burgers","American (Traditional)","Fast Food","Restaurants"],"city":"Montréal","review_count":15,"name":"Harvey's Restaurants","neighborhoods":["Ville-Marie"],"longitude":-73.5726,"state":"QC","stars":3.5,"latitude":45.4996,"cat":"American"},{"business_id":"XelBL_N-n-y1221tRAcZ0w","categories":["Bars","American (Traditional)","Pubs","Nightlife","Restaurants","Fish & Chips"],"city":"Montréal","review_count":10,"name":"Winnie Bar Restaurant","neighborhoods":["Ville-Marie"],"longitude":-73.5769,"state":"QC","stars":3.5,"latitude":45.498,"cat":"American"},{"business_id":"_TrH0m2TleO0pz46rjGSzQ","categories":["Burgers","American (Traditional)","Pizza","Restaurants"],"city":"Montréal","review_count":11,"name":"Zestos Pizza","neighborhoods":["Ville-Marie"],"longitude":-73.5703,"state":"QC","stars":4,"latitude":45.5025,"cat":"American"},{"business_id":"MbsOQrvuMlv7-6-uT3rPfg","categories":["American (Traditional)","Restaurants"],"city":"Montréal","review_count":3,"name":"Alex H Restaurant","neighborhoods":["Notre-Dame-de-Grâce"],"longitude":-73.6181,"state":"QC","stars":1.5,"latitude":45.4677,"cat":"American"},{"business_id":"7t7ybDNlBCMprnK-czMldQ","categories":["Burgers","American (Traditional)","Fast Food","Restaurants"],"city":"Montréal","review_count":5,"name":"Harvey's Restaurants","neighborhoods":["Mont-Royal"],"longitude":-73.6539,"state":"QC","stars":3,"latitude":45.4955,"cat":"American"},{"business_id":"ulA8Fa0zGsoQvgk6h-mVgA","categories":["American (New)","Restaurants"],"city":"Montréal","review_count":6,"name":"A La Carte Express","neighborhoods":["Sud-Ouest"],"longitude":-73.5849,"state":"QC","stars":2.5,"latitude":45.4713,"cat":"American"},{"business_id":"PWwvKVnY5YYm9lzMCf88zg","categories":["Burgers","American (Traditional)","Diners","Restaurants"],"city":"Montréal","review_count":16,"name":"Le Club Sandwich","neighborhoods":["Ville-Marie"],"longitude":-73.5779,"state":"QC","stars":3,"latitude":45.495,"cat":"American"},{"business_id":"zrd2LbYSvBIAivyicaDZjw","categories":["Latin American","Mexican","Restaurants"],"city":"Montréal","review_count":23,"name":"El Zaziummm","neighborhoods":["Plateau-Mont-Royal"],"longitude":-73.5843,"state":"QC","stars":2.5,"latitude":45.5327,"cat":"American"},{"business_id":"RnGYvUf5vrOwxs0U26zRSg","categories":["American (Traditional)","Buffets","French","Restaurants"],"city":"Montréal","review_count":4,"name":"Buffet La Bonne Carte","neighborhoods":[],"longitude":-73.5258,"state":"QC","stars":3,"latitude":45.5055,"cat":"American"},{"business_id":"Vt7Kim12rQEbIQbZ0M8ZOQ","categories":["American (Traditional)","French","Canadian (New)","Restaurants"],"city":"Montréal","review_count":79,"name":"Vallier","neighborhoods":["Ville-Marie"],"longitude":-73.5578,"state":"QC","stars":3.5,"latitude":45.5009,"cat":"American"},{"business_id":"z6l2Ap_Fyyb8u1dQ3VI9Gw","categories":["American (Traditional)","Restaurants"],"city":"Montréal","review_count":28,"name":"La Grande Terrasse","neighborhoods":["Ville-Marie"],"longitude":-73.5521,"state":"QC","stars":2,"latitude":45.5077,"cat":"American"},{"business_id":"sUydeg5qDuN_CSy6EFVaWQ","categories":["American (Traditional)","Southern","French","Restaurants"],"city":"Montréal","review_count":39,"name":"Kitchenette","neighborhoods":["Ville-Marie"],"longitude":-73.5523,"state":"QC","stars":4,"latitude":45.5189,"cat":"American"},{"business_id":"Dy6NUM4NzEdfGLy7uDmXcQ","categories":["American (Traditional)","Restaurants"],"city":"Montréal","review_count":141,"name":"Montreal Poutine","neighborhoods":["Ville-Marie"],"longitude":-73.5528,"state":"QC","stars":3,"latitude":45.5072,"cat":"American"},{"business_id":"8Cuc1KWo1sLhAaVHxsY_pQ","categories":["American (Traditional)","Comfort Food","Barbeque","Restaurants"],"city":"Montréal","review_count":18,"name":"Bofinger BBQ Smokehouse","neighborhoods":["Ville-Marie"],"longitude":-73.5694,"state":"QC","stars":3.5,"latitude":45.5029,"cat":"American"},{"business_id":"XQTNZiRoq2bzFvgL1CUNGg","categories":["Greek","American (Traditional)","Restaurants"],"city":"Montréal","review_count":3,"name":"Patate & Ciboulette","neighborhoods":["Mercier-Hochelaga-Maisonneuve"],"longitude":-73.5437,"state":"QC","stars":4.5,"latitude":45.5468,"cat":"American"},{"business_id":"xWUQak48XdNZ4ZlkaI4zng","categories":["Venezuelan","Latin American","Restaurants"],"city":"Montréal","review_count":148,"name":"Arepera du Plateau","neighborhoods":["Plateau-Mont-Royal"],"longitude":-73.5783,"state":"QC","stars":4.5,"latitude":45.5183,"cat":"American"},{"business_id":"wCw2ZjIuUk_G8eMXMN0rrw","categories":["Burgers","American (Traditional)","Restaurants"],"city":"Montréal","review_count":194,"name":"Burger Bar Crescent","neighborhoods":["Ville-Marie"],"longitude":-73.5771,"state":"QC","stars":4,"latitude":45.4981,"cat":"American"},{"business_id":"iA47kEbGZw7FZG6QZiDO_g","categories":["Latin American","Restaurants"],"city":"Montréal","review_count":11,"name":"Sabor Latino","neighborhoods":["Rosemont-La Petite-Patrie"],"longitude":-73.6113,"state":"QC","stars":4,"latitude":45.5381,"cat":"American"},{"business_id":"7BLj_oHWqCgEUOg0ZgKdlQ","categories":["Breakfast & Brunch","Latin American","Restaurants"],"city":"Montréal","review_count":11,"name":"Julieta Cuisine Latine","neighborhoods":["Rosemont-La Petite-Patrie"],"longitude":-73.6078,"state":"QC","stars":4.5,"latitude":45.5311,"cat":"American"},{"business_id":"C2aBZwoDCX7PgH7x4NYwMQ","categories":["American (Traditional)","Caribbean","Restaurants"],"city":"Montréal","review_count":3,"name":"Saveur Soleil","neighborhoods":["Ville-Marie"],"longitude":-73.5585,"state":"QC","stars":4.5,"latitude":45.5268,"cat":"American"},{"business_id":"sOcZcXcNm8LmdoOYqEDqpg","categories":["Food","Coffee & Tea","American (Traditional)","Restaurants"],"city":"Montréal","review_count":17,"name":"L'Entre-Pots","neighborhoods":["Plateau-Mont-Royal"],"longitude":-73.5824,"state":"QC","stars":4.5,"latitude":45.5389,"cat":"American"},{"business_id":"rYIguQoYebc3NuH6i6yqeg","categories":["Poutineries","American (Traditional)","Canadian (New)","Restaurants"],"city":"Montréal","review_count":86,"name":"Mâche!","neighborhoods":["Ville-Marie"],"longitude":-73.5635,"state":"QC","stars":4,"latitude":45.5151,"cat":"American"},{"business_id":"qLthEl2rklwmMZ1-G__sCg","categories":["Poutineries","American (Traditional)","Restaurants"],"city":"Montréal","review_count":300,"name":"Poutineville","neighborhoods":["Ville-Marie"],"longitude":-73.5613,"state":"QC","stars":4,"latitude":45.5233,"cat":"American"},{"business_id":"IcFunpqxHyl0PyYZLrCAXg","categories":["Latin American","Restaurants"],"city":"Montréal","review_count":32,"name":"Mezcla","neighborhoods":["Ville-Marie"],"longitude":-73.5519,"state":"QC","stars":4.5,"latitude":45.5214,"cat":"American"},{"business_id":"a7A0IT_RrdIL6K1l-76-Cg","categories":["Venezuelan","Latin American","Restaurants"],"city":"Montréal","review_count":15,"name":"Arepas","neighborhoods":["Ville-Marie"],"longitude":-73.5685,"state":"QC","stars":3.5,"latitude":45.5046,"cat":"American"},{"business_id":"ZWiiPpKOHC-DHRd2D6D1gw","categories":["American (Traditional)","Southern","Diners","Restaurants"],"city":"Montréal","review_count":153,"name":"Dinette Triple Crown","neighborhoods":["Rosemont-La Petite-Patrie"],"longitude":-73.6126,"state":"QC","stars":4.5,"latitude":45.5312,"cat":"American"},{"business_id":"1EBp5c5t6QzfT8eozTahVQ","categories":["Latin American","Salvadoran","Restaurants"],"city":"Montréal","review_count":15,"name":"El Chalateco","neighborhoods":["Rosemont-La Petite-Patrie"],"longitude":-73.6039,"state":"QC","stars":4,"latitude":45.535,"cat":"American"},{"business_id":"qoVMcYTuwv500tUMrb74pQ","categories":["Steakhouses","Breakfast & Brunch","Latin American","Argentine","Restaurants"],"city":"Montréal","review_count":63,"name":"L'Atelier d'Argentine","neighborhoods":["Ville-Marie"],"longitude":-73.5538,"state":"QC","stars":3.5,"latitude":45.5,"cat":"American"},{"business_id":"rm_n78uMj7KC5IJf131XMA","categories":["American (New)","Restaurants"],"city":"Montréal","review_count":9,"name":"Newtown Restaurant","neighborhoods":["Ville-Marie"],"longitude":-73.5771,"state":"QC","stars":2.5,"latitude":45.4981,"cat":"American"},{"business_id":"dELs0VO0zM0KphfwwVpO9A","categories":["Bars","Latin American","Mexican","Cocktail Bars","Nightlife","Restaurants"],"city":"Montréal","review_count":35,"name":"Cartel","neighborhoods":["Plateau-Mont-Royal"],"longitude":-73.5957,"state":"QC","stars":4,"latitude":45.5226,"cat":"American"},{"business_id":"hPcvSu-DkZ_s0vwM-NktGg","categories":["American (Traditional)","Restaurants"],"city":"Montreal","review_count":3,"name":"Cabine M","neighborhoods":["Saint-Laurent"],"longitude":-73.7509,"state":"QC","stars":3.5,"latitude":45.4584,"cat":"American"},{"business_id":"MKwuqXigIdGD9AsVboUBiA","categories":["Latin American","Mexican","Restaurants"],"city":"Montréal","review_count":103,"name":"El Rey Del Taco","neighborhoods":["Rosemont-La Petite-Patrie"],"longitude":-73.616,"state":"QC","stars":4,"latitude":45.5364,"cat":"American"},{"business_id":"i3XzRwNm-r3C1TSn3JW4Rw","categories":["American (Traditional)","Restaurants"],"city":"Montréal","review_count":39,"name":"Mange-moi","neighborhoods":["Plateau-Mont-Royal"],"longitude":-73.5862,"state":"QC","stars":3.5,"latitude":45.5205,"cat":"American"},{"business_id":"xuRi-Fpbs6a1TUjdrBbeKA","categories":["Gluten-Free","Colombian","Latin American","Restaurants"],"city":"Montréal","review_count":10,"name":"Gracias Corazon","neighborhoods":["Plateau-Mont-Royal"],"longitude":-73.5999,"state":"QC","stars":4.5,"latitude":45.525,"cat":"American"},{"business_id":"vDWVlFWy7UQk7v6On8Inwg","categories":["American (Traditional)","Steakhouses","Canadian (New)","Restaurants"],"city":"Montréal","review_count":29,"name":"Steak Frite St-Paul Village","neighborhoods":["Ville-Marie"],"longitude":-73.5554,"state":"QC","stars":3,"latitude":45.5193,"cat":"American"},{"business_id":"uyzyQ1rCl0YQ0_BUll5F7w","categories":["Seafood","Latin American","Restaurants"],"city":"Montréal","review_count":3,"name":"Madre","neighborhoods":["Ahunstic-Cartierville"],"longitude":-73.6659,"state":"QC","stars":4,"latitude":45.5467,"cat":"American"},{"business_id":"HtLC-ETA8mTYUWDboDiJTQ","categories":["Mexican","Latin American","Caribbean","Restaurants"],"city":"Montréal","review_count":46,"name":"Ceviches","neighborhoods":["Plateau-Mont-Royal"],"longitude":-73.5766,"state":"QC","stars":4.5,"latitude":45.5177,"cat":"American"},{"business_id":"vdOhxFYPHbCg93iZoTkfnA","categories":["Latin American","Salvadoran","Restaurants"],"city":"Montréal","review_count":15,"name":"Los Planes","neighborhoods":["Plateau-Mont-Royal"],"longitude":-73.577,"state":"QC","stars":4,"latitude":45.5213,"cat":"American"},{"business_id":"fXcOhb8asZwOh_CWVop1Mg","categories":["Latin American","Restaurants"],"city":"Montréal","review_count":9,"name":"La Chilenita","neighborhoods":["Plateau-Mont-Royal"],"longitude":-73.5748,"state":"QC","stars":4,"latitude":45.5168,"cat":"American"},{"business_id":"SWl5NAa53syLN8JnUesRUg","categories":["Bars","American (Traditional)","Nightlife","Lounges","Restaurants"],"city":"Montréal","review_count":30,"name":"Moxie's Grill & Bar","neighborhoods":["Ville-Marie"],"longitude":-73.5686,"state":"QC","stars":3.5,"latitude":45.503,"cat":"American"},{"business_id":"I-IZV1v67zU-z52qPPdB9Q","categories":["Latin American","Colombian","Restaurants"],"city":"Montréal","review_count":7,"name":"Chez Tina Gourmet","neighborhoods":["Rosemont-La Petite-Patrie"],"longitude":-73.6082,"state":"QC","stars":3,"latitude":45.5414,"cat":"American"},{"business_id":"OvKQgDuBlErmjCntx6Rdrw","categories":["Cajun/Creole","American (Traditional)","Canadian (New)","Restaurants"],"city":"Montréal","review_count":100,"name":"Cinko","neighborhoods":["Ville-Marie"],"longitude":-73.5632,"state":"QC","stars":4,"latitude":45.515,"cat":"American"},{"business_id":"wkzbgX0O79aCfSbxo1TJ-g","categories":["Delis","American (Traditional)","Restaurants"],"city":"Montréal","review_count":7,"name":"Nickel's Deli and Bar","neighborhoods":["Rosemont-La Petite-Patrie"],"longitude":-73.6101,"state":"QC","stars":3,"latitude":45.5395,"cat":"American"},{"business_id":"3QmM_VedBZbBFJ-Vdp7aVA","categories":["Bars","American (Traditional)","Burgers","Cocktail Bars","Nightlife","Restaurants"],"city":"Montréal","review_count":122,"name":"La Belle et la Boeuf","neighborhoods":["Ville-Marie"],"longitude":-73.5791,"state":"QC","stars":3.5,"latitude":45.494,"cat":"American"},{"business_id":"WXdH6W7TerE3EL1XG09WeQ","categories":["Seafood","American (Traditional)","Restaurants"],"city":"Montréal","review_count":12,"name":"Henri Saint-Henri","neighborhoods":["Sud-Ouest"],"longitude":-73.5819,"state":"QC","stars":3.5,"latitude":45.479,"cat":"American"},{"business_id":"PRhUGQJTuVccRgAZom-23g","categories":["Cheesesteaks","American (Traditional)","Sandwiches","Restaurants"],"city":"Montréal","review_count":15,"name":"Le Phillies Cheesesteak","neighborhoods":["Plateau-Mont-Royal"],"longitude":-73.6005,"state":"QC","stars":3.5,"latitude":45.5242,"cat":"American"},{"business_id":"H_PJO6PxTRPqu-hGlzdXhQ","categories":["Breakfast & Brunch","American (Traditional)","Pizza","Restaurants"],"city":"Montréal","review_count":10,"name":"Plaza Mcgill","neighborhoods":["Ville-Marie"],"longitude":-73.5595,"state":"QC","stars":3,"latitude":45.5007,"cat":"American"},{"business_id":"9m_otZMr6O2FZAFCqGBuHQ","categories":["Breakfast & Brunch","American (Traditional)","Restaurants"],"city":"Montréal","review_count":10,"name":"Coco Loco","neighborhoods":["Sud-Ouest"],"longitude":-73.5564,"state":"QC","stars":3.5,"latitude":45.493,"cat":"American"},{"business_id":"TbOl2ySPs8O4ctQN6OwzNw","categories":["Venezuelan","Latin American","Restaurants"],"city":"Montréal","review_count":13,"name":"Cacique Grill","neighborhoods":["Plateau-Mont-Royal"],"longitude":-73.5864,"state":"QC","stars":4,"latitude":45.5201,"cat":"American"},{"business_id":"e4BpdLNGsmEuNi0vSqLw7A","categories":["American (Traditional)","Restaurants"],"city":"Montréal","review_count":66,"name":"Montreal Poutine","neighborhoods":["Ville-Marie"],"longitude":-73.5527,"state":"QC","stars":3.5,"latitude":45.5074,"cat":"American"},{"business_id":"bYzTPqNW4WLFaraWVSISsA","categories":["Latin American","Restaurants"],"city":"Montréal","review_count":5,"name":"Bocadillo","neighborhoods":["Rosemont-La Petite-Patrie"],"longitude":-73.6153,"state":"QC","stars":4,"latitude":45.5331,"cat":"American"},{"business_id":"hwCDqeBTLyK_mg8-pw5b1w","categories":["American (Traditional)","Fast Food","Restaurants"],"city":"Montréal","review_count":7,"name":"Bonanza Snack-Bar","neighborhoods":[],"longitude":-73.5959,"state":"QC","stars":4.5,"latitude":45.534,"cat":"American"},{"business_id":"sEfaCfevJ0kWj3nkm_lNrQ","categories":["Latin American","Argentine","Restaurants"],"city":"Montréal","review_count":16,"name":"L'Atelier d'Argentine","neighborhoods":["Ville-Marie"],"longitude":-73.5771,"state":"QC","stars":3,"latitude":45.4977,"cat":"American"},{"business_id":"5M57V8y6FqJgkKWM4_8FsQ","categories":["Latin American","Mexican","Restaurants"],"city":"Montréal","review_count":5,"name":"Burrito Revolucion","neighborhoods":["Sud-Ouest"],"longitude":-73.5799,"state":"QC","stars":3,"latitude":45.48,"cat":"American"},{"business_id":"SJlL7nk1dF4I3yp1oewwvg","categories":["Asian Fusion","Restaurants"],"city":"Montréal","review_count":12,"name":"Just Noodles","neighborhoods":["Plateau-Mont-Royal"],"longitude":-73.5747,"state":"QC","stars":3.5,"latitude":45.515,"cat":"Asian"},{"business_id":"i_JJHaVhPdQHgi4qcQDp_g","categories":["Pakistani","Indian","Asian Fusion","Restaurants"],"city":"Montréal","review_count":4,"name":"Copacabana & Jay's  Scratch Kitchen","neighborhoods":["Plateau-Mont-Royal"],"longitude":-73.5783,"state":"QC","stars":3,"latitude":45.5163,"cat":"Asian"},{"business_id":"ovTdULs6nhKyBXUzsC553w","categories":["Asian Fusion","Restaurants"],"city":"Montréal","review_count":23,"name":"Restaurant Zyng","neighborhoods":["Ville-Marie"],"longitude":-73.5651,"state":"QC","stars":3,"latitude":45.5157,"cat":"Asian"},{"business_id":"HiVPCgCc-Fr4DSFh5C12Xw","categories":["Himalayan/Nepalese","Asian Fusion","Restaurants"],"city":"Montréal","review_count":26,"name":"Le Shambala","neighborhoods":["Plateau-Mont-Royal"],"longitude":-73.5682,"state":"QC","stars":3,"latitude":45.5174,"cat":"Asian"},{"business_id":"X_zc0F4SNzueiwcrmcFK5A","categories":["Asian Fusion","Restaurants"],"city":"Montréal","review_count":5,"name":"Restaurant Fou D'asie","neighborhoods":["Ville-Marie"],"longitude":-73.5648,"state":"QC","stars":4,"latitude":45.5156,"cat":"Asian"},{"business_id":"e8Xh5J6w4UngNoiRc5hLNQ","categories":["Asian Fusion","French","Restaurants"],"city":"Montréal","review_count":6,"name":"Gourmet Asian Fusion","neighborhoods":["Plateau-Mont-Royal"],"longitude":-73.5768,"state":"QC","stars":4,"latitude":45.521,"cat":"Asian"},{"business_id":"oi8kGXayDxQoHdBkfGaVXA","categories":["Cafes","Asian Fusion","Restaurants"],"city":"Montréal","review_count":9,"name":"Cafe Mei","neighborhoods":["Plateau-Mont-Royal"],"longitude":-73.596,"state":"QC","stars":4,"latitude":45.5247,"cat":"Asian"},{"business_id":"vmSUf42iBHD0oMupCx60BA","categories":["Asian Fusion","Restaurants"],"city":"Montréal","review_count":13,"name":"Cafe Asia","neighborhoods":["Plateau-Mont-Royal"],"longitude":-73.574,"state":"QC","stars":2.5,"latitude":45.5332,"cat":"Asian"},{"business_id":"xoY7FjiQgrFYOIcdhAGhsA","categories":["Steakhouses","Sushi Bars","Asian Fusion","Restaurants"],"city":"Montréal","review_count":46,"name":"Vargas Steakhouse & Sushi","neighborhoods":["Ville-Marie"],"longitude":-73.5674,"state":"QC","stars":3.5,"latitude":45.5015,"cat":"Asian"},{"business_id":"WhT5I5Ho-TZH-KQ8UNPueA","categories":["Asian Fusion","Restaurants"],"city":"Montréal","review_count":8,"name":"Le Showwok","neighborhoods":["Ville-Marie"],"longitude":-73.5825,"state":"QC","stars":3.5,"latitude":45.4916,"cat":"Asian"},{"business_id":"SmMeam9Go6HSvTvdqxmXXQ","categories":["Asian Fusion","Restaurants"],"city":"Montréal","review_count":6,"name":"Ciné Express","neighborhoods":["Ville-Marie"],"longitude":-73.5807,"state":"QC","stars":1.5,"latitude":45.4923,"cat":"Asian"},{"business_id":"T5jfvzHO6QdGudY61PYlDw","categories":["Food","Coffee & Tea","Asian Fusion","Restaurants"],"city":"Montreal","review_count":4,"name":"Oriental Cactus","neighborhoods":["Ville-Marie"],"longitude":-73.5775,"state":"QC","stars":3,"latitude":45.4963,"cat":"Asian"},{"business_id":"y_zobINm23FwJHtYsjYLvg","categories":["Thai","Asian Fusion","Chinese","Restaurants"],"city":"Montréal","review_count":27,"name":"Basilic Hong Kong Cha ChaanTeng","neighborhoods":["Ville-Marie"],"longitude":-73.5609,"state":"QC","stars":3,"latitude":45.5071,"cat":"Asian"},{"business_id":"IdCTfgR1Bj0Z2Mnq28JqGA","categories":["Asian Fusion","Restaurants"],"city":"Montréal","review_count":8,"name":"Aziatik","neighborhoods":["Ville-Marie"],"longitude":-73.5546,"state":"QC","stars":3,"latitude":45.4989,"cat":"Asian"},{"business_id":"Oz0agVuMzxkb4FOZAgetRQ","categories":["Sandwiches","Vietnamese","Asian Fusion","Restaurants"],"city":"Montréal","review_count":77,"name":"Vua","neighborhoods":["Ville-Marie"],"longitude":-73.5624,"state":"QC","stars":4,"latitude":45.5148,"cat":"Asian"},{"business_id":"GuZpuPZhffsbDF7l3Nd0KA","categories":["Asian Fusion","Nightlife","Dance Clubs","Restaurants"],"city":"Montréal","review_count":11,"name":"Koko Restaurant + Bar","neighborhoods":["Plateau-Mont-Royal","Ville-Marie"],"longitude":-73.5695,"state":"QC","stars":2.5,"latitude":45.5122,"cat":"Asian"},{"business_id":"_TMU3CFI_JivbU0ucjC5CQ","categories":["Tapas Bars","Sushi Bars","Asian Fusion","Restaurants"],"city":"Montréal","review_count":8,"name":"Ryu","neighborhoods":["Plateau-Mont-Royal"],"longitude":-73.5955,"state":"QC","stars":3.5,"latitude":45.5199,"cat":"Asian"},{"business_id":"bVjfqkvS86p8sp8WZ2kW_w","categories":["Asian Fusion","Chinese","Restaurants"],"city":"Montréal","review_count":29,"name":"Kanbai","neighborhoods":["Ville-Marie"],"longitude":-73.5799,"state":"QC","stars":3.5,"latitude":45.4934,"cat":"Asian"},{"business_id":"xs0P7cm-YQ4ly0h7MtkfrA","categories":["Asian Fusion","Restaurants"],"city":"Montréal","review_count":8,"name":"Kiss Grill","neighborhoods":["Ville-Marie"],"longitude":-73.5802,"state":"QC","stars":3.5,"latitude":45.493,"cat":"Asian"},{"business_id":"trNGHlkZFlKujbIS-PlLCg","categories":["Japanese","Sushi Bars","Asian Fusion","Restaurants"],"city":"Montréal","review_count":32,"name":"Restaurant Odaki","neighborhoods":["Ville-Marie"],"longitude":-73.5797,"state":"QC","stars":2.5,"latitude":45.493,"cat":"Asian"},{"business_id":"vRRg08Km36GBI7P7PJBn8A","categories":["Asian Fusion","Restaurants"],"city":"Montréal","review_count":29,"name":"Sesame","neighborhoods":["Ville-Marie"],"longitude":-73.5605,"state":"QC","stars":3,"latitude":45.5013,"cat":"Asian"},{"business_id":"6Efw9SBRpyFZtFhEL6y52A","categories":["Asian Fusion","Restaurants"],"city":"Montréal","review_count":4,"name":"Dragon Magnifique","neighborhoods":["Saint-Léonard"],"longitude":-73.5812,"state":"QC","stars":2.5,"latitude":45.5805,"cat":"Asian"},{"business_id":"U2Ym8EJI3NLb7bFRK_OZHg","categories":["Asian Fusion","Sushi Bars","Japanese","Restaurants"],"city":"Montréal","review_count":9,"name":"Sushi Palace Chinatown","neighborhoods":["Ville-Marie"],"longitude":-73.5597,"state":"QC","stars":3,"latitude":45.508,"cat":"Asian"},{"business_id":"1mOxsDg-r02Ftfpl_D3Xfw","categories":["Thai","Sushi Bars","Asian Fusion","Restaurants"],"city":"Montréal","review_count":7,"name":"Restaurant Côba","neighborhoods":["Outremont"],"longitude":-73.5978,"state":"QC","stars":3.5,"latitude":45.5171,"cat":"Asian"},{"business_id":"nEhNtKe3p5QeKOgyfQCNrQ","categories":["Japanese","Sushi Bars","Asian Fusion","Restaurants"],"city":"Montréal","review_count":6,"name":"Kaiji Sushi","neighborhoods":["Villeray-Saint-Michel-Parc-Extension"],"longitude":-73.605,"state":"QC","stars":4.5,"latitude":45.5506,"cat":"Asian"},{"business_id":"bit6UAEAAyVxC2CyDHUO4g","categories":["Thai","Asian Fusion","Chinese","Restaurants"],"city":"Montréal","review_count":3,"name":"Aux Cinq Parfums","neighborhoods":["Ahunstic-Cartierville"],"longitude":-73.6643,"state":"QC","stars":4.5,"latitude":45.5361,"cat":"Asian"},{"business_id":"fqXEUSuwwT-yeVSRTSdOcg","categories":["Thai","Asian Fusion","Fast Food","Restaurants"],"city":"Montréal","review_count":10,"name":"Thai Express","neighborhoods":["Ville-Marie"],"longitude":-73.5603,"state":"QC","stars":2.5,"latitude":45.5165,"cat":"Asian"},{"business_id":"2i-6a-xKcTwlmjJucF-0Cg","categories":["Asian Fusion","Restaurants"],"city":"Montréal","review_count":6,"name":"Restaurant Yenta","neighborhoods":["Saint-Léonard"],"longitude":-73.5707,"state":"QC","stars":4.5,"latitude":45.5921,"cat":"Asian"},{"business_id":"c1JU5rNa8CYupUNklOpjHQ","categories":["Vegetarian","Asian Fusion","Chinese","Restaurants"],"city":"Montréal","review_count":33,"name":"P F Chang's","neighborhoods":["Côte-des-Neiges","Mont-Royal"],"longitude":-73.6561,"state":"QC","stars":2.5,"latitude":45.4926,"cat":"Asian"},{"business_id":"7FJfy-2AeN8GAooZyln6dA","categories":["Kosher","Steakhouses","Asian Fusion","Restaurants"],"city":"Montréal","review_count":7,"name":"Resto Bar Chops","neighborhoods":["Côte-des-Neiges"],"longitude":-73.6295,"state":"QC","stars":4,"latitude":45.4831,"cat":"Asian"},{"business_id":"6KmRNO-wq3yGQOZogToJxQ","categories":["Korean","Asian Fusion","Japanese","Restaurants"],"city":"Montréal","review_count":3,"name":"Bob N Soul","neighborhoods":["Plateau-Mont-Royal"],"longitude":-73.5719,"state":"QC","stars":5,"latitude":45.5146,"cat":"Asian"},{"business_id":"0Wv-7RqDZGRIyLzOM5cdlg","categories":["Vietnamese","Asian Fusion","Food Court","Restaurants"],"city":"Montréal","review_count":3,"name":"Vie&Nam","neighborhoods":["Ville-Marie"],"longitude":-73.5714,"state":"QC","stars":3.5,"latitude":45.5036,"cat":"Asian"},{"business_id":"ziaio7q8ck-4HR1G0u2RpA","categories":["Thai","Asian Fusion","Cambodian","Restaurants"],"city":"Montréal","review_count":17,"name":"Restaurant Tuk Tuk","neighborhoods":["Côte-des-Neiges"],"longitude":-73.6258,"state":"QC","stars":4,"latitude":45.4984,"cat":"Asian"},{"business_id":"aGu4IdrFp_7XJnCk4QeEsw","categories":["Vietnamese","Fast Food","Asian Fusion","Restaurants"],"city":"Montréal","review_count":3,"name":"Yummy2Go","neighborhoods":["Ville-Marie"],"longitude":-73.586,"state":"QC","stars":4.5,"latitude":45.49,"cat":"Asian"},{"business_id":"uI2aWjvX-yCOWisIi0pNew","categories":["Tapas Bars","Asian Fusion","Sushi Bars","Restaurants"],"city":"Montréal","review_count":17,"name":"Mme Lee","neighborhoods":["Ville-Marie"],"longitude":-73.5663,"state":"QC","stars":3.5,"latitude":45.513,"cat":"Asian"},{"business_id":"2Xi8UaYi01C7oNtLtgI-ug","categories":["Thai","Asian Fusion","Restaurants"],"city":"Montréal","review_count":3,"name":"Bato Thai","neighborhoods":["Ville-Marie"],"longitude":-73.5552,"state":"QC","stars":3.5,"latitude":45.5194,"cat":"Asian"},{"business_id":"9QE0tadSpX08BoqWShSe9A","categories":["Asian Fusion","Restaurants"],"city":"Montréal","review_count":8,"name":"Tkrestobar","neighborhoods":["Côte-des-Neiges"],"longitude":-73.636,"state":"QC","stars":4.5,"latitude":45.4936,"cat":"Asian"},{"business_id":"jNamqP0wQ-WKxhTFBZGXFA","categories":["Asian Fusion","Restaurants"],"city":"Montréal","review_count":14,"name":"Sésame","neighborhoods":["Sud-Ouest"],"longitude":-73.5761,"state":"QC","stars":3,"latitude":45.4797,"cat":"Asian"},{"business_id":"bXX2UxjRXmJVndF9f2cUxg","categories":["Asian Fusion","Restaurants"],"city":"Montréal","review_count":17,"name":"Orange Rouge","neighborhoods":["Ville-Marie"],"longitude":-73.5609,"state":"QC","stars":4,"latitude":45.5067,"cat":"Asian"},{"business_id":"OFRbcSIGhjF3E_HwleEpXQ","categories":["Tapas Bars","Asian Fusion","Restaurants"],"city":"Montréal","review_count":19,"name":"Cho","neighborhoods":["Sud-Ouest"],"longitude":-73.5872,"state":"QC","stars":3.5,"latitude":45.4743,"cat":"Asian"},{"business_id":"7_TKgPJvmsm5sacsK3FhJA","categories":["Asian Fusion","Restaurants"],"city":"Montréal","review_count":21,"name":"Sésame","neighborhoods":["Ville-Marie"],"longitude":-73.5664,"state":"QC","stars":3.5,"latitude":45.5068,"cat":"Asian"},{"business_id":"JNoO-5Js7ENz7MFa02LVeQ","categories":["Sushi Bars","Asian Fusion","Restaurants"],"city":"Montréal","review_count":10,"name":"Yamaza Sushi","neighborhoods":["Ville-Marie"],"longitude":-73.5597,"state":"QC","stars":2.5,"latitude":45.5081,"cat":"Asian"},{"business_id":"6ZEWzpyjGtMvQn7Mrb4Rrg","categories":["Asian Fusion","Restaurants"],"city":"Montréal","review_count":4,"name":"Le Petit Tokebi","neighborhoods":["Notre-Dame-de-Grâce"],"longitude":-73.6243,"state":"QC","stars":4,"latitude":45.474,"cat":"Asian"},{"business_id":"Ef8XRx6dntxfFgYXP_S61A","categories":["Vegetarian","Asian Fusion","Middle Eastern","Restaurants"],"city":"Montréal","review_count":3,"name":"Le Billot","neighborhoods":["Plateau-Mont-Royal"],"longitude":-73.5754,"state":"QC","stars":3,"latitude":45.5214,"cat":"Asian"},{"business_id":"y0nP7sQUufEDMV0lARp8Iw","categories":["Korean","Asian Fusion","Restaurants"],"city":"Montréal","review_count":28,"name":"Haru Hana","neighborhoods":["Ville-Marie"],"longitude":-73.5592,"state":"QC","stars":4.5,"latitude":45.5172,"cat":"Asian"},{"business_id":"atBrcTI4xnsvCvsb2J1-MA","categories":["Bars","Asian Fusion","Nightlife","Restaurants"],"city":"Montréal","review_count":24,"name":"Grenade","neighborhoods":["Ville-Marie"],"longitude":-73.56,"state":"QC","stars":4,"latitude":45.525,"cat":"Asian"},{"business_id":"5bhwx5G19lHb5qC59FoB7w","categories":["Coffee & Tea","Food","Cafes","Asian Fusion","Desserts","Restaurants"],"city":"Montréal","review_count":4,"name":"Cafe Bistro Lomo","neighborhoods":["Rosemont-La Petite-Patrie"],"longitude":-73.5959,"state":"QC","stars":5,"latitude":45.5441,"cat":"Asian"},{"business_id":"A_Z61Zo1JlUrbSPapI8R_Q","categories":["Asian Fusion","Restaurants"],"city":"Montréal","review_count":19,"name":"Kyozon","neighborhoods":["Ville-Marie"],"longitude":-73.5771,"state":"QC","stars":2.5,"latitude":45.4977,"cat":"Asian"},{"business_id":"7Pz8FViuHkdjx2qgmhWM3w","categories":["Korean","Asian Fusion","Salad","Restaurants"],"city":"Montréal","review_count":4,"name":"Koreana","neighborhoods":["Ville-Marie"],"longitude":-73.5643,"state":"QC","stars":3.5,"latitude":45.5156,"cat":"Asian"},{"business_id":"I4w1azz8aRY7GDyGYJ97fA","categories":["Sandwiches","Vietnamese","Asian Fusion","Restaurants"],"city":"Montréal","review_count":8,"name":"Ômai Prêt-à-Manger","neighborhoods":["Ville-Marie"],"longitude":-73.5685,"state":"QC","stars":4,"latitude":45.5044,"cat":"Asian"},{"business_id":"uETBXZTmQcH2SuzSdkwi8Q","categories":["Asian Fusion","Chinese","Restaurants"],"city":"Montréal","review_count":10,"name":"Trilogie","neighborhoods":["Villeray-Saint-Michel-Parc-Extension"],"longitude":-73.638,"state":"QC","stars":4,"latitude":45.541,"cat":"Asian"},{"business_id":"5wnfh9DHIMaaEIIVAzhhIA","categories":["Food","Desserts","Restaurants","Asian Fusion","Tea Rooms"],"city":"Montréal","review_count":12,"name":"Chicha Restaurant","neighborhoods":["Notre-Dame-de-Grâce"],"longitude":-73.6064,"state":"QC","stars":4,"latitude":45.4764,"cat":"Asian"},{"business_id":"vGHbXy9SjVl9lkakP9TBeg","categories":["Asian Fusion","Restaurants"],"city":"Montréal","review_count":7,"name":"YakiYami","neighborhoods":["Plateau-Mont-Royal"],"longitude":-73.577,"state":"QC","stars":2.5,"latitude":45.5306,"cat":"Asian"},{"business_id":"zUArRuIRO4zFWY9RCaEN3A","categories":["Vietnamese","Asian Fusion","Restaurants"],"city":"Montréal","review_count":13,"name":"Bao Boys","neighborhoods":["Plateau-Mont-Royal"],"longitude":-73.5773,"state":"QC","stars":3.5,"latitude":45.5216,"cat":"Asian"},{"business_id":"_94uLHACC0jMNoDyI9YpaQ","categories":["Food","Coffee & Tea","Asian Fusion","Restaurants"],"city":"Montréal","review_count":7,"name":"Resto Chillax","neighborhoods":["Plateau-Mont-Royal"],"longitude":-73.5726,"state":"QC","stars":4,"latitude":45.509,"cat":"Asian"},{"business_id":"erkv-CZOE1K1FtfHKkGqbQ","categories":["Asian Fusion","Buffets","Japanese","Restaurants"],"city":"Montréal","review_count":5,"name":"Takumi","neighborhoods":["Plateau-Mont-Royal"],"longitude":-73.5677,"state":"QC","stars":3.5,"latitude":45.5173,"cat":"Asian"},{"business_id":"JzHSoCn-KWJxRLNxy8SQfg","categories":["Asian Fusion","Filipino","Restaurants"],"city":"Montréal","review_count":10,"name":"HÀO","neighborhoods":["Plateau-Mont-Royal"],"longitude":-73.5796,"state":"QC","stars":4.5,"latitude":45.5205,"cat":"Asian"},{"business_id":"Uf28CZlPhxNH-XL0BO1EmQ","categories":["Indian","Restaurants"],"city":"Montréal","review_count":3,"name":"Restaurant Nouveau Delhi","neighborhoods":["Plateau-Mont-Royal"],"longitude":-73.5682,"state":"QC","stars":3.5,"latitude":45.5171,"cat":"Indian"},{"business_id":"LaDR0oIwo_7bWea573btfQ","categories":["Indian","Restaurants"],"city":"Montréal","review_count":36,"name":"Restaurant Atma","neighborhoods":["Plateau-Mont-Royal"],"longitude":-73.5791,"state":"QC","stars":4,"latitude":45.5167,"cat":"Indian"},{"business_id":"CMWxDaXQ4lT2MxQyG4rOjg","categories":["Indian","Restaurants","Pizza","Italian"],"city":"Montréal","review_count":8,"name":"Sandhu","neighborhoods":["Plateau-Mont-Royal"],"longitude":-73.5755,"state":"QC","stars":3.5,"latitude":45.5332,"cat":"Indian"},{"business_id":"i_JJHaVhPdQHgi4qcQDp_g","categories":["Pakistani","Indian","Asian Fusion","Restaurants"],"city":"Montréal","review_count":4,"name":"Copacabana & Jay's  Scratch Kitchen","neighborhoods":["Plateau-Mont-Royal"],"longitude":-73.5783,"state":"QC","stars":3,"latitude":45.5163,"cat":"Indian"},{"business_id":"PuWwxtvKoIKm5THqGTVq8w","categories":["Indian","Restaurants"],"city":"Montréal","review_count":13,"name":"Maison de cari golden","neighborhoods":["Plateau-Mont-Royal"],"longitude":-73.5949,"state":"QC","stars":3,"latitude":45.5239,"cat":"Indian"},{"business_id":"KvH0MN2F6J3oBAOibsBjEQ","categories":["Indian","Restaurants"],"city":"Montréal","review_count":47,"name":"Bombay Mahal","neighborhoods":["Villeray-Saint-Michel-Parc-Extension"],"longitude":-73.6258,"state":"QC","stars":3.5,"latitude":45.5247,"cat":"Indian"},{"business_id":"FIDnkERccXF2-6ikAPP5PA","categories":["Indian","Restaurants"],"city":"Montréal","review_count":20,"name":"Tabla Village","neighborhoods":["Ville-Marie"],"longitude":-73.555,"state":"QC","stars":3.5,"latitude":45.5198,"cat":"Indian"},{"business_id":"63OBkgt-ozKdb1pFYZkgzg","categories":["Pakistani","Indian","Restaurants"],"city":"Montréal","review_count":12,"name":"Restaurant Ambala","neighborhoods":["Plateau-Mont-Royal"],"longitude":-73.5738,"state":"QC","stars":2,"latitude":45.52,"cat":"Indian"},{"business_id":"F2bKbtRIfX8fVwNW3g5EVg","categories":["Pakistani","Indian","Restaurants"],"city":"Montréal","review_count":10,"name":"Restaurant La Nouvelle Lune Indienne","neighborhoods":["Ville-Marie"],"longitude":-73.5657,"state":"QC","stars":3,"latitude":45.516,"cat":"Indian"},{"business_id":"TKTiztj5UOz2Na3xw9Hkvg","categories":["Pakistani","Indian","Restaurants"],"city":"Montréal","review_count":14,"name":"Restaurant Kashmir Cuisine Indienne","neighborhoods":["Ville-Marie"],"longitude":-73.5524,"state":"QC","stars":2.5,"latitude":45.5072,"cat":"Indian"},{"business_id":"V1EI4003RYAEYYWiTQ27jA","categories":["Bars","Indian","Nightlife","Canadian (New)","Restaurants"],"city":"Montréal","review_count":7,"name":"Lobby Bar","neighborhoods":["Plateau-Mont-Royal"],"longitude":-73.5755,"state":"QC","stars":2.5,"latitude":45.5332,"cat":"Indian"},{"business_id":"XfWtEoivr71v5SISpHPz9w","categories":["Indian","Restaurants"],"city":"Montréal","review_count":7,"name":"La Porte de L'Inde","neighborhoods":["Plateau-Mont-Royal"],"longitude":-73.5944,"state":"QC","stars":3.5,"latitude":45.524,"cat":"Indian"},{"business_id":"7WHlCAx5R76Q6Z4f3JgUnQ","categories":["Indian","Restaurants"],"city":"Montréal","review_count":5,"name":"Restaurant Bombay","neighborhoods":["Ville-Marie"],"longitude":-73.5642,"state":"QC","stars":3,"latitude":45.5157,"cat":"Indian"},{"business_id":"-XUMQ8i1DFLahHSfbev10A","categories":["Indian","Restaurants"],"city":"Montréal","review_count":18,"name":"Restaurant Tibetan Om","neighborhoods":["Plateau-Mont-Royal"],"longitude":-73.5847,"state":"QC","stars":4,"latitude":45.5193,"cat":"Indian"},{"business_id":"FO6CWml1n3iOhLU--zvyWg","categories":["Indian","Restaurants"],"city":"Montréal","review_count":66,"name":"Restaurant Gandhi","neighborhoods":["Ville-Marie"],"longitude":-73.5555,"state":"QC","stars":4,"latitude":45.5022,"cat":"Indian"},{"business_id":"vOIM0Vk8vw0bplqGjuUIdg","categories":["Pakistani","Indian","Middle Eastern","Restaurants"],"city":"Montréal","review_count":16,"name":"Mysore Indian Cuisine","neighborhoods":["Plateau-Mont-Royal"],"longitude":-73.5822,"state":"QC","stars":4,"latitude":45.5181,"cat":"Indian"},{"business_id":"N8bJRj1zaouV_ic2Skqp4g","categories":["Pakistani","Indian","Middle Eastern","Restaurants"],"city":"Montréal","review_count":4,"name":"Restaurant Shezan","neighborhoods":["Ville-Marie"],"longitude":-73.5661,"state":"QC","stars":3,"latitude":45.5165,"cat":"Indian"},{"business_id":"79_45LKCNMwf_EFKni3yQA","categories":["Indian","Pakistani","Bangladeshi","Restaurants"],"city":"Montréal","review_count":37,"name":"Sana","neighborhoods":["Villeray-Saint-Michel-Parc-Extension"],"longitude":-73.6359,"state":"QC","stars":4,"latitude":45.531,"cat":"Indian"},{"business_id":"Nd4_ooFPQlB-5WGrysqu-A","categories":["Indian","Restaurants"],"city":"Montréal","review_count":13,"name":"Dev Restaurant","neighborhoods":["Côte-des-Neiges"],"longitude":-73.6362,"state":"QC","stars":3.5,"latitude":45.4939,"cat":"Indian"},{"business_id":"kiFrvSe9TzlYWJgprQTpEg","categories":["Buffets","Indian","Middle Eastern","Restaurants"],"city":"Montréal","review_count":60,"name":"Buffet Maharaja","neighborhoods":["Ville-Marie"],"longitude":-73.5748,"state":"QC","stars":2,"latitude":45.4945,"cat":"Indian"},{"business_id":"G65-1ikYzfa2EQO0NCJgXw","categories":["Indian","Restaurants"],"city":"Montreal","review_count":50,"name":"Punjab Palace","neighborhoods":["Villeray-Saint-Michel-Parc-Extension"],"longitude":-73.6251,"state":"QC","stars":4,"latitude":45.5253,"cat":"Indian"},{"business_id":"xqe7Ag9mSaM22T694CvRQA","categories":["Vegetarian","Indian","Vegan","Restaurants"],"city":"Montréal","review_count":148,"name":"Le Taj","neighborhoods":["Ville-Marie"],"longitude":-73.5767,"state":"QC","stars":4,"latitude":45.5011,"cat":"Indian"},{"business_id":"6jtPTI668vipCka_GnTQ_g","categories":["Vegetarian","Indian","Restaurants"],"city":"Montréal","review_count":57,"name":"Restaurant Devi","neighborhoods":["Ville-Marie"],"longitude":-73.5759,"state":"QC","stars":3.5,"latitude":45.4972,"cat":"Indian"},{"business_id":"ORbDFcH_mvupg_uQ2LeZ2g","categories":["Indian","Restaurants"],"city":"Montréal","review_count":9,"name":"Restaurant India's Oven","neighborhoods":["Villeray-Saint-Michel-Parc-Extension"],"longitude":-73.6229,"state":"QC","stars":4,"latitude":45.5288,"cat":"Indian"},{"business_id":"QHbfG8Rwubu1uZzCGvd7kg","categories":["Pakistani","Indian","Middle Eastern","Restaurants"],"city":"Montréal","review_count":15,"name":"Allo Inde","neighborhoods":["Ville-Marie"],"longitude":-73.5744,"state":"QC","stars":2.5,"latitude":45.4996,"cat":"Indian"},{"business_id":"woNVoGxw-_wI3YxMWSmfjA","categories":["Indian","Restaurants"],"city":"Montréal","review_count":4,"name":"Chicken Tikka","neighborhoods":["Ville-Marie"],"longitude":-73.5788,"state":"QC","stars":4.5,"latitude":45.494,"cat":"Indian"},{"business_id":"Yj0fJldokZ32AX4R5a_LqA","categories":["Indian","Restaurants"],"city":"Montréal","review_count":42,"name":"Malhi Sweets Indian Cuisine","neighborhoods":["Villeray-Saint-Michel-Parc-Extension"],"longitude":-73.6369,"state":"QC","stars":4,"latitude":45.5291,"cat":"Indian"},{"business_id":"PWAFq0t9gXgLn3RPFhthag","categories":["Indian","Restaurants"],"city":"Montréal","review_count":14,"name":"Ganges Restaurant","neighborhoods":["Notre-Dame-de-Grâce"],"longitude":-73.6214,"state":"QC","stars":4.5,"latitude":45.4679,"cat":"Indian"},{"business_id":"3zGyUbQR5-rm-rhyxY6gnA","categories":["Vegetarian","Indian","Restaurants"],"city":"Montréal","review_count":79,"name":"Pushap","neighborhoods":["Mont-Royal"],"longitude":-73.6539,"state":"QC","stars":4.5,"latitude":45.4975,"cat":"Indian"},{"business_id":"hm7S4J8P-aQkai5X7UxDgA","categories":["Indian","Restaurants"],"city":"Montréal","review_count":10,"name":"Étoile des Indes","neighborhoods":["Notre-Dame-de-Grâce"],"longitude":-73.6182,"state":"QC","stars":4,"latitude":45.4692,"cat":"Indian"},{"business_id":"zXHgDLxXHIqdkErZee0Utg","categories":["Indian","Restaurants"],"city":"Montréal","review_count":22,"name":"Maison India","neighborhoods":["Notre-Dame-de-Grâce"],"longitude":-73.6181,"state":"QC","stars":4,"latitude":45.4691,"cat":"Indian"},{"business_id":"MzHFs-ToGHJECmIEUvhWtg","categories":["Vegetarian","Indian","Restaurants"],"city":"Montréal","review_count":80,"name":"Thali Cuisine Indienne","neighborhoods":["Ville-Marie"],"longitude":-73.5807,"state":"QC","stars":3.5,"latitude":45.4931,"cat":"Indian"},{"business_id":"ihwdAeMyuByfXlIPRCanfw","categories":["Indian","Restaurants"],"city":"Montréal","review_count":22,"name":"Chef Guru","neighborhoods":["Plateau-Mont-Royal"],"longitude":-73.5809,"state":"QC","stars":4,"latitude":45.5175,"cat":"Indian"},{"business_id":"v-6-IYvX9BjdnA58qqrNPQ","categories":["Indian","Restaurants"],"city":"Montréal","review_count":6,"name":"East India","neighborhoods":["Plateau-Mont-Royal"],"longitude":-73.5745,"state":"QC","stars":3,"latitude":45.5118,"cat":"Indian"},{"business_id":"cP_jZtX5gPEQOM2DnimJzA","categories":["Indian","Restaurants"],"city":"Montréal","review_count":4,"name":"Le Rajput Authentic Fusion Indian","neighborhoods":["Plateau-Mont-Royal"],"longitude":-73.5721,"state":"QC","stars":2.5,"latitude":45.5143,"cat":"Indian"},{"business_id":"RiQw7fxDw4qT0-dHad9Mmw","categories":["Indian","Restaurants"],"city":"Montréal","review_count":11,"name":"Thali","neighborhoods":["Ville-Marie"],"longitude":-73.5663,"state":"QC","stars":3.5,"latitude":45.5131,"cat":"Indian"},{"business_id":"geTbnF3xRjdvrMfPP8uKow","categories":["Indian","Restaurants"],"city":"Montréal","review_count":6,"name":"Restaurant Mumbai","neighborhoods":["Sud-Ouest"],"longitude":-73.5792,"state":"QC","stars":3,"latitude":45.4804,"cat":"Indian"},{"business_id":"mbOZ9udokSbajtaMA42Dig","categories":["Indian","Sri Lankan","Restaurants"],"city":"Montréal","review_count":24,"name":"Jolee","neighborhoods":["Côte-des-Neiges"],"longitude":-73.6317,"state":"QC","stars":3.5,"latitude":45.4917,"cat":"Indian"},{"business_id":"mWcJN4KWwh68pWVkog7WHQ","categories":["Food","Ethnic Food","Indian","Restaurants","Specialty Food"],"city":"Montréal","review_count":18,"name":"Restaurant Mirchi","neighborhoods":["Ville-Marie"],"longitude":-73.5562,"state":"QC","stars":3,"latitude":45.5005,"cat":"Indian"},{"business_id":"_n-Rb4H20FA1WLPfZimRiw","categories":["Indian","Restaurants"],"city":"Montréal","review_count":3,"name":"Taj Mahal","neighborhoods":["Notre-Dame-de-Grâce"],"longitude":-73.6058,"state":"QC","stars":3.5,"latitude":45.4767,"cat":"Indian"},{"business_id":"yp12PmvrHoYQvGgpD1Q4mw","categories":["Indian","Restaurants"],"city":"Montréal","review_count":7,"name":"Bombay Tandoori","neighborhoods":["Sud-Ouest","Verdun"],"longitude":-73.5685,"state":"QC","stars":2.5,"latitude":45.4789,"cat":"Indian"},{"business_id":"fXY_BcqFhyf4AdfS3No1Lw","categories":["Indian","Restaurants"],"city":"Montréal","review_count":8,"name":"India Beau Village","neighborhoods":["Villeray-Saint-Michel-Parc-Extension"],"longitude":-73.636,"state":"QC","stars":3.5,"latitude":45.5309,"cat":"Indian"},{"business_id":"pOjR47ymW1TjMVcjJms9ow","categories":["Indian","Restaurants"],"city":"Montréal","review_count":12,"name":"Jaipur Tandoori","neighborhoods":["Plateau-Mont-Royal"],"longitude":-73.5782,"state":"QC","stars":3,"latitude":45.5291,"cat":"Indian"},{"business_id":"46OnCyLtC6oY5ANrVn26xg","categories":["Indian","Restaurants"],"city":"Montréal","review_count":14,"name":"Bienvenue en Inde","neighborhoods":["Plateau-Mont-Royal"],"longitude":-73.586,"state":"QC","stars":3,"latitude":45.5255,"cat":"Indian"},{"business_id":"elstmdus1x-alE3RvVP9DQ","categories":["Indian","Restaurants"],"city":"Montréal","review_count":53,"name":"Maison Indian Curry","neighborhoods":["Villeray-Saint-Michel-Parc-Extension"],"longitude":-73.6254,"state":"QC","stars":4,"latitude":45.5248,"cat":"Indian"},{"business_id":"rRKD9Cn_d1UzbxoolPQeoQ","categories":["Indian","Restaurants"],"city":"Montréal","review_count":7,"name":"Cari Mela","neighborhoods":["Sud-Ouest","Verdun"],"longitude":-73.5688,"state":"QC","stars":3.5,"latitude":45.4786,"cat":"Indian"},{"business_id":"Z4BWyDbFrFFarnxPv3mnuA","categories":["Indian","Restaurants"],"city":"Montréal","review_count":62,"name":"Thanjai Restaurant","neighborhoods":["Côte-des-Neiges"],"longitude":-73.6374,"state":"QC","stars":4.5,"latitude":45.4949,"cat":"Indian"},{"business_id":"mTMdXpjRi1tCJE272PHrHQ","categories":["Indian","Restaurants"],"city":"Montréal","review_count":4,"name":"Du Pain De l'Inde","neighborhoods":["Ville-Marie"],"longitude":-73.5674,"state":"QC","stars":4.5,"latitude":45.5116,"cat":"Indian"},{"business_id":"WBFAnNdZThVqvpBsRsW4ow","categories":["Indian","Pakistani","Restaurants"],"city":"Montréal","review_count":3,"name":"Moti Mehal","neighborhoods":["Villeray-Saint-Michel-Parc-Extension"],"longitude":-73.6257,"state":"QC","stars":4,"latitude":45.5243,"cat":"Indian"},{"business_id":"rXj5yyswoE_bwB_G3zsIWA","categories":["Indian","Restaurants"],"city":"Montréal","review_count":5,"name":"Masala","neighborhoods":["Sud-Ouest"],"longitude":-73.5625,"state":"QC","stars":4,"latitude":45.4824,"cat":"Indian"},{"business_id":"oRju12xA-ucMzikBRqd0Ig","categories":["Indian","Restaurants"],"city":"Montréal","review_count":6,"name":"Cari masala","neighborhoods":["Mercier-Hochelaga-Maisonneuve"],"longitude":-73.5274,"state":"QC","stars":3,"latitude":45.6092,"cat":"Indian"},{"business_id":"xSctbNZdqr4nj6SGn6jhxw","categories":["Indian","Restaurants"],"city":"Montréal","review_count":45,"name":"Chand Palace","neighborhoods":["Villeray-Saint-Michel-Parc-Extension"],"longitude":-73.6257,"state":"QC","stars":4,"latitude":45.5249,"cat":"Indian"},{"business_id":"UNaHbKfrtOJe5xv5IMbvPg","categories":["Indian","Restaurants"],"city":"Montréal","review_count":10,"name":"Asha","neighborhoods":["Plateau-Mont-Royal"],"longitude":-73.5734,"state":"QC","stars":2.5,"latitude":45.5094,"cat":"Indian"},{"business_id":"0b2-YVU2Oi_LHX6KwmWjpA","categories":["Indian","Restaurants"],"city":"Montréal","review_count":120,"name":"Darbar","neighborhoods":["Ville-Marie"],"longitude":-73.5674,"state":"QC","stars":4.5,"latitude":45.5117,"cat":"Indian"},{"business_id":"e7bOG60SSb2q0QXQDBhDqw","categories":["Indian","Restaurants"],"city":"Montréal","review_count":11,"name":"Express Indien","neighborhoods":["Notre-Dame-de-Grâce"],"longitude":-73.6389,"state":"QC","stars":4.5,"latitude":45.467,"cat":"Indian"},{"business_id":"8oaqEbHJTWCFlaGFHVuQgQ","categories":["Indian","Restaurants"],"city":"Montréal","review_count":8,"name":"Maison Samosa Express","neighborhoods":["Saint-Laurent"],"longitude":-73.6775,"state":"QC","stars":4.5,"latitude":45.5123,"cat":"Indian"},{"business_id":"kfQM41MfS8sWV3j8Uerm9A","categories":["Indian","Pizza","Restaurants"],"city":"Montréal","review_count":5,"name":"Pizza St-laurent","neighborhoods":["Ville-Marie"],"longitude":-73.5665,"state":"QC","stars":2,"latitude":45.5116,"cat":"Indian"},{"business_id":"SfSoRLUDfWoyDn9YgVLVVw","categories":["Pakistani","Indian","Restaurants"],"city":"Montréal","review_count":3,"name":"Allo Inde","neighborhoods":["Ville-Marie"],"longitude":-73.5748,"state":"QC","stars":3.5,"latitude":45.4957,"cat":"Indian"},{"business_id":"Q5XZkqWz1jw3AJmusE74sw","categories":["Indian","Restaurants"],"city":"Montréal","review_count":3,"name":"Taj Mahal","neighborhoods":["Ville-Marie"],"longitude":-73.5549,"state":"QC","stars":3.5,"latitude":45.5037,"cat":"Indian"},{"business_id":"ip4l4EMBtfnqXy1K_cjmvw","categories":["Indian","Restaurants"],"city":"Montréal","review_count":28,"name":"Namasté Montréal","neighborhoods":["Plateau-Mont-Royal"],"longitude":-73.5726,"state":"QC","stars":4.5,"latitude":45.5105,"cat":"Indian"},{"business_id":"Yc3mooSkwdb2eEc7eFuZFQ","categories":["Fast Food","Indian","Restaurants"],"city":"Montréal","review_count":5,"name":"Tandori","neighborhoods":["Ville-Marie"],"longitude":-73.5714,"state":"QC","stars":3,"latitude":45.5036,"cat":"Indian"},{"business_id":"8AS3dlN-Y3UG26elbF-jgg","categories":["Indian","Restaurants"],"city":"Montréal","review_count":4,"name":"Le Roi de L'Inde","neighborhoods":["Plateau-Mont-Royal"],"longitude":-73.5686,"state":"QC","stars":3,"latitude":45.5173,"cat":"Indian"},{"business_id":"ntnhKjCbJ0fMZAxDJSHrpQ","categories":["Indian","Restaurants"],"city":"Montréal","review_count":34,"name":"Rasoï","neighborhoods":["Sud-Ouest"],"longitude":-73.5798,"state":"QC","stars":4,"latitude":45.4803,"cat":"Indian"},{"business_id":"k5DMPNLkvX6T6EVpmEuscg","categories":["Indian","Restaurants"],"city":"Montréal","review_count":12,"name":"Restaurant rajastan","neighborhoods":["Plateau-Mont-Royal"],"longitude":-73.5705,"state":"QC","stars":2,"latitude":45.5182,"cat":"Indian"},{"business_id":"MIg9W_qXGoeQ0FW-tMzVXQ","categories":["Indian","Restaurants"],"city":"Montréal","review_count":3,"name":"Triple B Restaurant","neighborhoods":["Sud-Ouest"],"longitude":-73.586,"state":"QC","stars":3.5,"latitude":45.476,"cat":"Indian"},{"business_id":"XZdJq--2uFQZGddTbPyhbQ","categories":["Indian","Restaurants"],"city":"Montréal","review_count":7,"name":"Masala Palace","neighborhoods":["Côte-des-Neiges"],"longitude":-73.6271,"state":"QC","stars":3,"latitude":45.4863,"cat":"Indian"},{"business_id":"Rf34fl3MU_FDYwghwip8Ng","categories":["Indian","Restaurants"],"city":"Montréal","review_count":3,"name":"Tabla Village","neighborhoods":["Ville-Marie"],"longitude":-73.5551,"state":"QC","stars":3.5,"latitude":45.5198,"cat":"Indian"},{"business_id":"fVkghYiuUJUEaHIspRY_0Q","categories":["Indian","Restaurants"],"city":"Montréal","review_count":12,"name":"Taj Mahal Du Vieux-Montreal","neighborhoods":["Ville-Marie"],"longitude":-73.5549,"state":"QC","stars":3,"latitude":45.5037,"cat":"Indian"},{"business_id":"clXWPRAlZ9DFYHcEdI-ukg","categories":["Indian","Restaurants"],"city":"Montréal","review_count":11,"name":"Kuljit India","neighborhoods":["Ahunstic-Cartierville"],"longitude":-73.7127,"state":"QC","stars":4,"latitude":45.5248,"cat":"Indian"},{"business_id":"BEN0jNeMrykL3PGeSKObbA","categories":["Indian","Pakistani","Restaurants"],"city":"Montréal","review_count":9,"name":"Student Tasty Biryani","neighborhoods":["Ville-Marie"],"longitude":-73.5805,"state":"QC","stars":3.5,"latitude":45.4958,"cat":"Indian"},{"business_id":"X6nzCRnOWvhM1j5q0p_3Ig","categories":["Indian","Restaurants"],"city":"Montréal","review_count":15,"name":"Bistro Guru","neighborhoods":["Plateau-Mont-Royal"],"longitude":-73.5686,"state":"QC","stars":4.5,"latitude":45.5173,"cat":"Indian"},{"business_id":"EGzFpBmr3UdHnNgyC7jqdw","categories":["Indian","Restaurants"],"city":"Montréal","review_count":13,"name":"Livraison Bombay Mahal Express","neighborhoods":["Plateau-Mont-Royal"],"longitude":-73.5741,"state":"QC","stars":3,"latitude":45.5146,"cat":"Indian"},{"business_id":"5HnXsYY8i1P6H1QT6xf45A","categories":["Indian","Restaurants"],"city":"Montréal","review_count":22,"name":"Curry Mahal","neighborhoods":["Plateau-Mont-Royal"],"longitude":-73.5765,"state":"QC","stars":4.5,"latitude":45.5156,"cat":"Indian"},{"business_id":"UVodE-2n3cErTrRDWUoZlA","categories":["Indian","Restaurants"],"city":"Montréal","review_count":4,"name":"Flavours of India","neighborhoods":["Villeray-Saint-Michel-Parc-Extension"],"longitude":-73.6257,"state":"QC","stars":4.5,"latitude":45.5243,"cat":"Indian"},{"business_id":"Pa2q3qCnqEoA1t4JSt_kjQ","categories":["Indian","Restaurants"],"city":"Montréal","review_count":5,"name":"Didar Restaurant","neighborhoods":["Côte-des-Neiges"],"longitude":-73.6362,"state":"QC","stars":4.5,"latitude":45.4939,"cat":"Indian"},{"business_id":"EaEGBC6wpkhpRu38PBTg4Q","categories":["Indian","Sri Lankan","Restaurants"],"city":"Montréal","review_count":6,"name":"Thavas Boite à Curry","neighborhoods":["Ville-Marie"],"longitude":-73.5758,"state":"QC","stars":4.5,"latitude":45.4963,"cat":"Indian"},{"business_id":"9IkGlL5D8DEwNmnwDaCHZw","categories":["Indian","Restaurants"],"city":"Montréal","review_count":19,"name":"Singh's","neighborhoods":["Plateau-Mont-Royal"],"longitude":-73.5745,"state":"QC","stars":4,"latitude":45.5147,"cat":"Indian"},{"business_id":"uYbT8N4P_IzxN__OZ_VVpg","categories":["Indian","Restaurants"],"city":"Montréal","review_count":6,"name":"Bombay Mahal","neighborhoods":["Ville-Marie"],"longitude":-73.5785,"state":"QC","stars":3.5,"latitude":45.4945,"cat":"Indian"},{"business_id":"E9IDR5S1JT4LUjN2VLp4Bw","categories":["Pakistani","Bars","Indian","Nightlife","Restaurants"],"city":"Montréal","review_count":6,"name":"Peg N Tikka","neighborhoods":["Plateau-Mont-Royal","Ville-Marie"],"longitude":-73.5693,"state":"QC","stars":4.5,"latitude":45.5126,"cat":"Indian"},{"business_id":"0KU-tajtS1YDaqNN_EmPEA","categories":["Indian","Restaurants"],"city":"Montréal","review_count":3,"name":"Chennai Express","neighborhoods":["Ville-Marie"],"longitude":-73.5686,"state":"QC","stars":4.5,"latitude":45.5046,"cat":"Indian"},{"business_id":"NsgivU2T4rFfu94RWJH1Xw","categories":["Indian","Restaurants"],"city":"Montréal","review_count":3,"name":"Lakshana's Chettinad","neighborhoods":["Côte-des-Neiges"],"longitude":-73.6262,"state":"QC","stars":5,"latitude":45.4983,"cat":"Indian"}]
